player_id,player_name,date_of_birth,position,club_team,caps,currently_playing_for,born_in,born_city,born_lat,born_lng,qualified_for_proxy_citizenship,ever_senior_national_team,ever_youth_national_team,wikidata_qid,match_confidence,match_source,needs_review,notes
1,José Raúl Rangel,2000-02-25,GK,CD Guadalajara,15,Mexico,Mexico,Zapotlán el Grande Municipality,19.7,-103.51667,Mexico,,,Q120753803,high,wikidata-name+dob,,
2,Jorge Eduardo Sanchez,1997-12-10,DEF,PAOK Saloniki,59,Mexico,Mexico,Torreón,25.54389,-103.41898,Mexico,Mexico,,Q24034870,high,wikidata-name+dob,,
3,César Jasib Montes,1997-02-24,DEF,FC Lokomotiv Moscow,69,Mexico,Mexico,Hermosillo,29.075,-110.95833,Mexico,Mexico,,Q20816441,high,wikidata-name+dob,,
4,Edson Omar Alvarez,1997-10-24,DEF,Fenerbahçe SK,100,Mexico,Mexico,Tlalnepantla de Baz Municipality,19.54,-99.16667,Mexico,Mexico,,Q27859514,high,wikidata-name+dob,,
5,Johan Felipe Vasquez,1998-10-22,DEF,Genoa CFC,47,Mexico,Mexico,Navojoa,27.07057,-109.44345,Mexico,Mexico,,Q107863939,high,web-verified,NO,"Verified: born Navojoa, Sonora, Mexico; Mexico senior int'l. DOB & QID confirmed."
6,Erik Antonio Lira,2000-05-08,MID,CF Cruz Azul,26,Mexico,Mexico,Cuauhtémoc,19.44306,-99.14472,Mexico,Mexico,,Q98593181,high,wikidata-name+dob,,
7,Luis Francisco Romo,1995-06-05,MID,CD Guadalajara,62,Mexico,Mexico,Ahome Municipality,25.83333,-109.05,Mexico,,,Q56433831,high,wikidata-name+dob,,
8,Álvaro Fidalgo,1997-04-09,MID,Real Betis,5,Mexico,Spain,Siero,43.39147,-5.66087,Spain; Mexico,,Spain (U-16); Spain (U-17),Q98092491,high,wikidata-name+dob,,born abroad
9,Raúl Alonso Jimenez,1991-05-05,FWD,Fulham FC,127,Mexico,Mexico,Tepeji del Río de Ocampo Municipality,19.90528,-99.34167,Mexico,Mexico,,Q1925465,high,wikidata-name+dob,,
10,Ernesto Alexis Vega,1997-11-25,FWD,Deportivo Toluca FC,53,Mexico,Mexico,Cuauhtémoc,19.44306,-99.14472,Mexico,Mexico,,Q23799433,high,wikidata-name+dob,,
11,Santiago Tomás Gimenez,2001-04-18,FWD,AC Milan,47,Mexico,Argentina,Buenos Aires,-34.59972,-58.38194,Italy; Mexico,Mexico,,Q33296979,high,wikidata-name+dob,,born abroad
12,Carlos Acevedo,1996-04-19,GK,Club Santos Laguna,7,Mexico,Mexico,Torreón,25.54389,-103.41898,Mexico,,,Q26707107,high,wikidata-name+dob,,
13,Francisco Guillermo Ochoa,1985-07-13,GK,AEL Limassol,153,Mexico,Mexico,Guadalajara,20.67639,-103.34222,Mexico,Mexico,Mexico (U-23),Q215522,high,wikidata-name+dob,,
14,Armando Gonzalez,2003-04-20,FWD,CD Guadalajara,8,Mexico,Mexico,Celaya,20.52889,-100.815,Mexico,,,Q124283356,high,wikidata-name+dob,,
15,Israel Reyes,2000-05-23,DEF,Club América,35,Mexico,Mexico,Autlán de Navarro Municipality,19.75,-104.3,Mexico,,,Q107739233,high,wikidata-name+dob,,
16,Julián Andrés Quinones,1997-03-24,FWD,Al Qadsiah FC,23,Mexico,Colombia,Magüí Payán,1.76583,-78.18278,Colombia; Mexico,,,Q22082627,high,wikidata-name+dob,,born abroad
17,Orbelín Pineda,1996-03-24,MID,AEK Athens,92,Mexico,Mexico,Coyuca de Catalán Municipality,18.0888,-100.9149,Mexico,Mexico,Mexico (U-20),Q18224489,high,wikidata-name+dob,,
18,Obed Goméz Vargas,2005-08-05,MID,Atlético De Madrid,6,Mexico,USA,Anchorage,61.21667,-149.89361,USA; Mexico,,,Q106778770,high,wikidata-name+dob,,born abroad
19,Gilberto Rafael Mora,2008-10-14,MID,Club Tijuana,9,Mexico,Mexico,Tuxtla Gutiérrez,16.75306,-93.11556,Mexico,,,Q129652337,high,wikidata-name+dob,,
20,Mateo Chavez,2004-05-12,DEF,AZ Alkmaar,10,Mexico,Mexico,Monterrey,25.68444,-100.31806,Mexico,,,Q124420330,high,wikidata-name+dob,,
21,César Saúl Huerta,2000-12-03,FWD,RSC Anderlecht,26,Mexico,Mexico,Guadalajara,20.67639,-103.34222,Mexico,,,Q50820392,high,wikidata-name+dob,,
22,Guillermo Martinez,1995-03-15,FWD,Pumas UNAM,12,Mexico,Mexico,Celaya,20.52889,-100.815,Mexico,,Mexico (U-20),Q19158746,high,wikipedia-squad,,
23,Jesús Daniel Gallardo,1994-08-15,DEF,Deportivo Toluca FC,123,Mexico,Mexico,Heroica Cárdenas,17.98943,-93.37686,Mexico,Mexico,,Q22092356,high,wikidata-name+dob,,
24,Luis Gerardo Chavez,1996-01-15,MID,FC Dynamo Moscow,46,Mexico,Mexico,Cihuatlán,19.23834,-104.563,Mexico,,,Q22092264,high,wikidata-name+dob,,
25,Roberto Carlos Alvarado,1998-09-07,FWD,CD Guadalajara,69,Mexico,Mexico,Salamanca,20.56903,-101.19961,Mexico,Mexico,,Q21004804,high,wikidata-name+dob,,
26,Brian Gutierrez,2003-06-17,MID,CD Guadalajara,8,Mexico,USA,Berwyn,41.84333,-87.79093,USA; Mexico,,,Q98536293,high,wikidata-name+dob,,born abroad
27,Ronwen Hayden Williams,1992-01-21,GK,Mamelodi Sundowns FC,65,South Africa,South Africa,Gqeberha,-33.95806,25.6,South Africa,South Africa,,Q7366080,high,wikidata-name+dob,,
28,Tholo Thabang Matuludi,1999-01-14,DEF,Polokwane City FC,3,South Africa,South Africa,Dennilton,-25.256,29.164,South Africa,,,Q127324870,high,wikidata-name+dob,,
29,Khulumani Ndamane,2004-02-05,DEF,Mamelodi Sundowns FC,5,South Africa,South Africa,Ladysmith,-28.55389,29.7825,South Africa,,,Q137299823,high,wikidata-name+dob,,
30,Teboho Mokoena,1997-01-24,MID,Mamelodi Sundowns FC,58,South Africa,South Africa,Bethlehem,-28.23333,28.3,South Africa,South Africa,,Q58790870,high,wikidata-name+dob,,
31,Thalente Wandile Mbatha,2000-03-06,MID,Orlando Pirates FC,17,South Africa,South Africa,KwaMashu,-29.75,30.98333,South Africa,,,Q130261099,high,wikidata-name+dob,,
32,Aubrey Maphosa Modiba,1995-07-22,DEF,Mamelodi Sundowns FC,49,South Africa,South Africa,Polokwane,-23.9,29.45,South Africa,South Africa,,Q26405966,high,wikidata-name+dob,,
33,Oswin Reagan Appollis,2001-08-25,FWD,Orlando Pirates FC,28,South Africa,South Africa,Bishop Lavis,-33.9486,18.5758,South Africa,South Africa,South Africa (U-20),Q64167435,high,wikidata-name+dob,,
34,Tshepang Moremi,2000-10-02,FWD,Orlando Pirates FC,10,South Africa,South Africa,Sharpeville,-26.66667,27.86667,South Africa,,,Q125166783,high,wikidata-name+dob,,
35,Lyle Brent Foster,2000-09-03,FWD,Burnley FC,32,South Africa,South Africa,Soweto,-26.26778,27.85861,South Africa,South Africa,South Africa (U-20); South Africa (U-23),Q42725482,high,web-verified,NO,DOB 2000-09-03 verified (prior mismatch flag was false); Soweto & SA caps confirmed.
36,Relebohile Mofokeng,2004-10-23,FWD,Orlando Pirates FC,14,South Africa,South Africa,Sharpeville,-26.66667,27.86667,South Africa,South Africa,,Q119413564,high,wikidata-name+dob,,
37,Themba Zwane,1989-08-03,MID,Mamelodi Sundowns FC,56,South Africa,South Africa,Thembisa,-26.0055,28.2102,South Africa,South Africa,,Q7781199,high,wikidata-name+dob,,
38,Thapelo Maseko,2003-11-11,FWD,AEL Limassol,8,South Africa,South Africa,Sebokeng,-26.57694,27.84056,South Africa,,,Q124173111,high,wikidata-name+dob,,
39,Sphephelo S'miso Sithole,1999-03-03,MID,CD Tondela,30,South Africa,South Africa,Durban,-29.85833,31.025,South Africa,,,Q104530871,high,wikidata-name+dob,,
40,Mbekezeli Mfanufikile Mbokazi,2005-09-19,DEF,Chicago Fire FC,11,South Africa,South Africa,Hluhluwe,-28.01889,32.2675,South Africa,,,Q133464757,high,wikidata-name+dob,,
41,Iqraam Rayners,1995-12-19,FWD,Mamelodi Sundowns FC,21,South Africa,South Africa,Cape Town,-33.92528,18.42389,South Africa,South Africa,,Q100565190,high,wikidata-name+dob,,
42,Sipho Justin Chaine,1996-12-14,GK,Orlando Pirates FC,4,South Africa,South Africa,Bloemfontein,-29.1,26.21667,South Africa,,,Q58796434,high,wikidata-name+dob,,
43,Sekotori Evidence Makgopa,2000-06-05,FWD,Orlando Pirates FC,28,South Africa,South Africa,Fetakgomo Local Municipality,-24.4167,29.9167,South Africa,,,Q100984327,high,wikidata-name+dob,,
44,Samukele Alucious Kabini,2004-03-15,DEF,Molde FK,6,South Africa,South Africa,Pretoria,-25.7479,28.2293,South Africa,,,Q133794425,high,wikidata-name+dob,,
45,Nkosinathi Emmanuel Sibisi,1995-09-22,DEF,Orlando Pirates FC,22,South Africa,South Africa,Durban,-29.85833,31.025,South Africa,South Africa,,Q58580967,high,web-verified,NO,DOB 1995-09-22 verified; senior SA int'l (AFCON 2023 bronze); no youth caps found.
46,Khuliso Johnson Mudau,1995-04-26,DEF,Mamelodi Sundowns FC,35,South Africa,South Africa,Musina,-22.33806,30.04167,South Africa,South Africa,,Q58810793,high,wikidata-name+dob,,
47,Ime Daniel Okon,2004-02-20,DEF,Hannover 96,9,South Africa,South Africa,Pretoria,-25.7479,28.2293,South Africa,,,Q127514195,high,wikidata-name+dob,,
48,Stuart Ricardo Goss,1994-04-02,GK,Siwelele FC,7,South Africa,South Africa,Durban,-29.85833,31.025,South Africa,South Africa,,Q58796031,high,wikidata-name+dob,,
49,Jayden Oswin Adams,2001-05-05,MID,Mamelodi Sundowns FC,9,South Africa,South Africa,Cape Town,-33.92528,18.42389,South Africa,South Africa,,Q105520386,high,wikidata-name+dob,,
50,Olwethu Mpilwenhle Makhanya,2004-04-30,DEF,Philadelphia Union,1,South Africa,South Africa,Durban,-29.85833,31.025,South Africa,,,Q122207713,high,wikidata-name+dob,,
51,Kamogelo Michael Sebelebele,2002-07-21,FWD,Orlando Pirates FC,9,South Africa,South Africa,Thembisa,-26.0055,28.2102,South Africa,,,Q137441719,high,wikidata-name+dob,,
52,Bradley Paul Cross,2001-01-30,DEF,Kaizer Chiefs FC,1,South Africa,South Africa,Kempton Park,-26.1,28.2333,South Africa,,,Q117790110,high,wikidata-name+dob,,
53,Seunggyu Kim,1990-09-30,GK,FC Tokyo,87,South Korea,South Korea,Ulsan,35.55,129.31667,South Korea,South Korea,South Korea (U-17); South Korea (U-20); South Korea (U-23),Q6409355,high,wikipedia-squad,,
54,Hanbeom Lee,2002-06-17,DEF,FC Midtjylland,9,South Korea,South Korea,Seoul,37.5665,126.978,South Korea,,,Q106779330,high,wikipedia-squad,,
55,Gihyuk Lee,2000-07-07,MID,Gangwon FC,4,South Korea,South Korea,Seoul,37.56,126.99,South Korea,,,Q113013535,high,wikipedia-squad,,
56,Minjae Kim,1996-11-15,DEF,FC Bayern München,80,South Korea,South Korea,Tongyeong,34.84583,128.42361,South Korea,South Korea,South Korea (U-19); South Korea (U-23),Q28699707,high,wikidata-name+dob,,
57,Taehyeon Kim,2000-09-17,DEF,Kashima Antlers,7,South Korea,South Korea,Seoul,37.5665,126.978,South Korea,,,Q79904514,high,wikipedia-squad,,
58,Inbeom Hwang,1996-09-20,MID,Feyenoord Rotterdam,74,South Korea,South Korea,Daejeon,36.35,127.385,South Korea,South Korea,South Korea (U-17); South Korea (U-20); South Korea (U-23),Q19603924,high,wikidata-name+dob,,
59,Heung Min Son,1992-07-08,FWD,LAFC,145,South Korea,South Korea,Chuncheon,37.87472,127.73417,South Korea,South Korea,South Korea (U-17),Q439722,high,wikidata-name+dob,,
60,Seungho Paik,1997-03-17,MID,Birmingham City FC,28,South Korea,South Korea,Suwon,37.28583,127.01,South Korea,South Korea,South Korea (U-20),Q12597820,high,wikidata-name+dob,,
61,Guesung Cho,1998-01-25,FWD,FC Midtjylland,44,South Korea,South Korea,Ansan,37.32361,126.82194,South Korea,South Korea,South Korea (U-23),Q69696822,high,wikidata-name+dob,,
62,Jae Sung Lee,1992-08-10,MID,1. FSV Mainz 05,106,South Korea,South Korea,Ulsan,35.55,129.31667,South Korea,South Korea,South Korea (U-23),Q16234741,high,wikidata-name+dob,,
63,Hee Chan Hwang,1996-01-26,MID,Wolverhampton Wanderers FC,80,South Korea,South Korea,Chuncheon,37.87472,127.73417,South Korea,South Korea,South Korea (U-17); South Korea (U-20); South Korea (U-23),Q18551518,high,wikidata-name+dob,,
64,Bumkeun Song,1997-10-15,GK,Jeonbuk Hyundai Motors FC,3,South Korea,South Korea,Seongnam,37.43861,127.13778,South Korea,,,Q49562244,high,wikidata-name+dob,,
65,Taeseok Lee,2002-07-28,DEF,FK Austria Wien,16,South Korea,South Korea,Seoul,37.5665,126.978,South Korea,,,Q61100362,high,wikipedia-squad,,
66,Wije Cho,2001-08-25,DEF,Jeonbuk Hyundai Motors FC,1,South Korea,South Korea,Busan,35.17955,129.07556,South Korea,South Korea,South Korea (U-23),Q119432409,high,web-verified,NO,Cho Wi-je; born Busan. Youth SK U-23. Senior cap (1) = late-May-2026 WC injury call-up; re-check live caps.
67,Moonhwan Kim,1995-08-01,DEF,Daejeon Hana Citizen FC,36,South Korea,South Korea,Hwaseong,37.2,126.76667,South Korea,South Korea,South Korea (U-23),Q31146726,high,wikidata-name+dob,,
68,Jinseob Park,1995-10-23,DEF,Zhejiang FC,15,South Korea,South Korea,Seoul,37.5665,126.978,South Korea,South Korea,South Korea (U-23),Q69696842,high,wikipedia-squad,,
69,Junho Bae,2003-08-21,MID,Stoke City FC,13,South Korea,South Korea,Daegu,35.87167,128.60167,South Korea,,,Q118978780,high,wikidata-name+dob,,
70,Hyeongyu Oh,2001-04-12,FWD,Be ş ikta ş  JK,28,South Korea,South Korea,Namyangju,37.63667,127.21417,South Korea,,,Q63344470,high,wikidata-name+dob,,
71,Kangin Lee,2001-02-19,MID,Paris Saint-Germain,48,South Korea,South Korea,Incheon,37.46389,126.64861,South Korea,South Korea,South Korea (U-17); South Korea (U-20); South Korea (U-23),Q16174734,high,wikidata-name+dob,,
72,Hyunjun Yang,2002-05-25,MID,Celtic FC,9,South Korea,South Korea,Busan,35.18,129.075,South Korea,,South Korea (U-23),Q113127167,high,wikidata-name+dob,,
73,Hyeonwoo Jo,1991-09-25,GK,Ulsan HD,48,South Korea,South Korea,Seoul,37.56,126.99,South Korea,South Korea,South Korea (U-20); South Korea (U-23),Q15622446,high,wikidata-name+dob,,
74,Youngwoo Seol,1998-12-05,DEF,FK Crvena Zvezda,35,South Korea,South Korea,Ulsan,35.55,129.31667,South Korea,South Korea,South Korea (U-23),Q97205258,high,wikipedia-squad,,
75,Jens Castrop,2003-07-29,DEF,Borussia Mönchengladbach,7,South Korea,Germany,Düsseldorf,51.22556,6.77667,Germany; South Korea,,,Q98829565,high,wikidata-name+dob,,born abroad
76,Jingyu Kim,1997-02-24,MID,Jeonbuk Hyundai Motors FC,23,South Korea,South Korea,Pohang,36.03222,129.365,South Korea,,South Korea (U-20),Q21916759,high,wikipedia-squad,,
77,Jisung Eom,2002-05-09,MID,Swansea City AFC,10,South Korea,South Korea,Gimje,35.80167,126.88889,South Korea,,,Q105896342,high,wikidata-name+dob,,
78,Donggyeong Lee,1997-09-20,MID,Ulsan HD,18,South Korea,South Korea,Seoul,37.5665,126.978,South Korea,,,Q62961021,high,wikidata-name+dob,,
79,Mat ě j Kovar,2000-05-17,GK,PSV Eindhoven,21,Czechia,Czechia,Uherské Hradiště,49.06976,17.45969,Czechia,,,Q59914031,high,wikipedia-squad,,
80,David Zima,2000-11-08,DEF,SK Slavia Praha,25,Czechia,Czechia,Olomouc,49.59389,17.25083,Czechia,,,Q84312754,high,wikidata-name+dob,,
81,Tomáš Holes,1993-03-31,DEF,SK Slavia Praha,41,Czechia,Czechia,Polička,49.71468,16.26548,Czechia,Czechia,Czechia (U-21),Q13360752,high,wikidata-name+dob,,
82,Robin Hranac,2000-01-29,DEF,TSG Hoffenheim,15,Czechia,Czechia,Plzeň,49.74139,13.3825,Czechia,Czechia,Czechia (U-21),Q107647351,high,wikidata-name+dob,,
83,Vladimír Coufal,1992-08-22,DEF,TSG Hoffenheim,63,Czechia,Czechia,Prague,50.0875,14.42139,Czechia,,Czechia (U-21),Q15113326,high,wikidata-name+dob,,
84,ě pán Chaloupek,2003-03-08,DEF,SK Slavia Praha,6,Czechia,Czechia,Meziboří,50.62125,13.5988,Czechia,,Czechia (U-21),Q114713721,high,wikipedia-squad,,
85,Ladislav Krejci,1999-04-20,DEF,Wolverhampton Wanderers FC,28,Czechia,Czechia,Rosice,49.18235,16.38789,Czechia,Czechia,Czechia (U-16); Czechia (U-18); Czechia (U-19); Czechia (U-20); Czechia (U-21),Q27919903,high,wikidata-name+dob,,
86,Vladimír Darida,1990-08-08,MID,FC Hradec Králové,79,Czechia,Czechia,Plzeň,49.74139,13.3825,Czechia,Czechia,Czechia (U-20); Czechia (U-21),Q278239,high,wikidata-name+dob,,
87,Adam Hlozek,2002-07-25,FWD,TSG Hoffenheim,44,Czechia,Czechia,Ivančice,49.10148,16.37753,Czechia,Czechia,Czechia (U-17); Czechia (U-21),Q59782306,high,wikidata-name+dob,,
88,Patrik Schick,1996-01-24,FWD,Bayer 04 Leverkusen,54,Czechia,Czechia,Prague,50.0875,14.42139,Czechia,Czechia,Czechia (U-17); Czechia (U-18); Czechia (U-19); Czechia (U-21),Q16910257,high,wikidata-name+dob,,
89,Jan Kuchta,1997-01-08,FWD,AC Sparta Praha,31,Czechia,Czechia,Liberec,50.76667,15.05,Czechia,Czechia,Czechia (U-21),Q45045358,high,wikidata-name+dob,,
90,Lukáš Cerv,2001-04-10,MID,FC Viktoria Plze ň,17,Czechia,Czechia,Prague,50.0875,14.42139,Czechia,Czechia,Czechia (U-18); Czechia (U-19); Czechia (U-21),Q97312966,high,wikidata-name+dob,,
91,Mojmír Chytil,1999-04-29,FWD,SK Slavia Praha,23,Czechia,Czechia,Skalka,49.4031,17.16983,Czechia,,,Q104488728,high,wikidata-name+dob,,
92,David Jurasek,2000-08-07,DEF,SK Slavia Praha,18,Czechia,Czechia,Uherské Hradiště,49.06976,17.45969,Czechia,,,Q96070453,high,wikidata-name+dob,,
93,Pavel Sulc,2000-12-29,FWD,Olympique Lyonnais,22,Czechia,Czechia,Karlovy Vary,50.23056,12.8725,Czechia,Czechia,Czechia (U-19); Czechia (U-20); Czechia (U-21),Q60791524,high,wikidata-name+dob,,
94,Jind ř ich Stanek,1996-04-27,GK,SK Slavia Praha,14,Czechia,Czechia,Strakonice,49.2615,13.9024,Czechia,Czechia,Czechia (U-16); Czechia (U-17); Czechia (U-19); Czechia (U-21),Q56512017,high,wikipedia-squad,,
95,Lukáš Provod,1996-10-23,MID,SK Slavia Praha,39,Czechia,Czechia,Plzeň,49.74139,13.3825,Czechia,Czechia,Czechia (U-20); Czechia (U-21),Q45288740,high,wikidata-name+dob,,
96,Michal Sadilek,1999-05-31,MID,SK Slavia Praha,36,Czechia,Czechia,Uherské Hradiště,49.06976,17.45969,Czechia,,,Q28801942,high,wikidata-name+dob,,
97,Tomáš Chory,1995-01-26,FWD,SK Slavia Praha,23,Czechia,Czechia,Olomouc,49.59389,17.25083,Czechia,Czechia,Czechia (U-16); Czechia (U-17); Czechia (U-19); Czechia (U-20); Czechia (U-21),Q17037384,high,wikidata-name+dob,,
98,Jaroslav Zeleny,1992-08-20,DEF,AC Sparta Praha,24,Czechia,Czechia,Hradec Králové,50.20917,15.83194,Czechia,Czechia,Czechia (U-17); Czechia (U-18),Q6160707,high,wikidata-name+dob,,
99,David Doudera,1998-05-31,DEF,SK Slavia Praha,17,Czechia,Czechia,Brandýs nad Labem-Stará Boleslav,50.18716,14.66333,Czechia,Czechia,Czechia (U-20); Czechia (U-21),Q96613620,high,wikidata-name+dob,,
100,Tomáš Soucek,1995-02-27,MID,West Ham United FC,91,Czechia,Czechia,Havlíčkův Brod,49.6079,15.58073,Czechia,Czechia,Czechia (U-19); Czechia (U-21),Q20860081,high,wikidata-name+dob,,
101,Lukáš Hornicek,2002-07-13,GK,SC Braga,1,Czechia,Czechia,Vysoké Mýto,49.95324,16.16175,Czechia,,,Q100271491,high,wikidata-name+dob,,
102,Alexandr Sojka,2003-04-02,MID,FC Viktoria Plze ň,3,Czechia,Czechia,Klatovy,49.39563,13.29509,Czechia,Czechia,,Q131432595,high,web-verified,NO,DOB 2003-04-02 verified; born Klatovy; Czechia senior int'l.
103,Hugo Sochurek,2008-06-07,MID,AC Sparta Praha,1,Czechia,Czechia,Tábor,49.41449,14.65784,Czechia,,,Q138757935,high,wikidata-name+dob,,
104,Denis Visinsky,2003-03-21,FWD,FC Viktoria Plze ň,2,Czechia,Czechia,Mělník,50.35057,14.47419,Czechia,,,Q106061470,high,wikidata-name+dob,,
105,Dayne Tristan St. Clair,1997-05-09,GK,Inter Miami CF,20,Canada,Canada,Pickering,43.90694,-79.13083,Canada,Canadian,,Q60583915,high,wikidata-name+dob,,senior caps listed only for other nation(s) - possible switch/mismatch
106,Alistair William Johnston,1998-10-08,DEF,Celtic FC,59,Canada,Canada,Vancouver,49.26083,-123.11389,Canada,Canadian,,Q81878309,high,wikidata-name+dob,,senior caps listed only for other nation(s) - possible switch/mismatch
107,Alfie Charles Jones,1997-10-07,DEF,Middlesbrough FC,2,Canada,United Kingdom,Bristol,51.45361,-2.5975,United Kingdom,Canadian,,Q56222105,high,wikidata-name+dob,,born abroad; senior caps listed only for other nation(s) - possible switch/mismatch
108,Luc De Fougerolles,2005-10-12,DEF,FCV Dender EH,14,Canada,United Kingdom,London,51.50722,-0.1275,United Kingdom; Canada,Canadian,,Q121829403,high,wikidata-name+dob,,born abroad; senior caps listed only for other nation(s) - possible switch/mismatch
109,Joel Robert Waterman,1996-01-24,DEF,Chicago Fire FC,17,Canada,Canada,Langley,49.10444,-122.5827,Canada,Canadian,,Q63700064,high,wikidata-name+dob,,senior caps listed only for other nation(s) - possible switch/mismatch
110,Mathieu Choiniere,1999-02-07,MID,LAFC,24,Canada,Canada,Saint-Alexandre,45.2333,-73.1167,Canada,Canadian,Canada (U-20),Q55760452,high,wikidata-name+dob,,senior caps listed only for other nation(s) - possible switch/mismatch
111,Stephen Eustaquio,1996-12-21,MID,LAFC,57,Canada,Canada,Leamington,42.052,-82.5999,Canada; Portugal,Canadian,,Q35009041,high,wikidata-name+dob,,senior caps listed only for other nation(s) - possible switch/mismatch
112,Ismaël Kenneth Jordan Kone,2002-06-16,MID,US Sassuolo,41,Canada,Côte d'Ivoire,Abidjan,5.33639,-4.02667,Côte d'Ivoire; Canada,Canadian,,Q111009946,high,wikidata-name+dob,,born abroad; senior caps listed only for other nation(s) - possible switch/mismatch
113,Cyle Christopher Larin,1995-04-17,FWD,Southampton FC,91,Canada,Canada,Brampton,43.68333,-79.76667,Canada,Canadian,Canada (U-20),Q16935084,high,wikidata-name+dob,,senior caps listed only for other nation(s) - possible switch/mismatch
114,Jonathan Christian David,2000-01-14,FWD,Juventus FC,78,Canada,USA,Brooklyn,40.65083,-73.94972,Canada; USA,Canadian,,Q56085180,high,wikidata-name+dob,,born abroad; senior caps listed only for other nation(s) - possible switch/mismatch
115,Liam Alan Millar,1999-09-27,MID,Hull City FC,42,Canada,Canada,Toronto,43.67028,-79.38667,Canada,Canadian,,Q50505969,high,wikidata-name+dob,,senior caps listed only for other nation(s) - possible switch/mismatch
116,Tanitoluwa Oluwatimilehin Oluwaseyi,2000-05-15,FWD,Villarreal CF,25,Canada,Nigeria,Abuja,9.05556,7.49139,Nigeria,Canadian,,Q113564288,high,wikidata-name+dob,,born abroad; senior caps listed only for other nation(s) - possible switch/mismatch
117,Derek Austin Cornelius,1997-11-25,DEF,Rangers FC,45,Canada,Canada,Ajax,43.85833,-79.03639,Canada; Jamaica,Canadian,,Q29901014,high,wikidata-name+dob,,senior caps listed only for other nation(s) - possible switch/mismatch
118,Jacob Everett Shaffelburg,1999-11-26,MID,LAFC,32,Canada,Canada,Port Williams,45.0978,-64.4094,Canada,Canadian,,Q64009768,high,wikidata-name+dob,,senior caps listed only for other nation(s) - possible switch/mismatch
119,Moïse Bombito Bombito,2000-03-30,DEF,OGC Nice,20,Canada,Canada,Montreal,45.50334,-73.58684,Canada,Canadian,,Q116146104,high,wikidata-name+dob,,senior caps listed only for other nation(s) - possible switch/mismatch
120,Maxime Crepeau,1994-05-11,GK,Orlando City SC,33,Canada,Canada,Greenfield Park,45.4833,-73.45,Canada,Canadian,Canada (U-17); Canada (U-20),Q19866530,high,wikidata-name+dob,,senior caps listed only for other nation(s) - possible switch/mismatch
121,Tajon Trevor Buchanan,1999-02-08,FWD,Villarreal CF,61,Canada,Canada,Brampton,43.68333,-79.76667,Canada,Canadian,,Q62016194,high,wikidata-name+dob,,senior caps listed only for other nation(s) - possible switch/mismatch
122,Owen Olamidayo Goodman,2003-11-27,GK,Barnsley,0,Canada,United Kingdom,Harold Wood,51.592,0.2313,United Kingdom,Canadian,,Q119079226,high,wikidata-name+dob,,born abroad; senior caps listed only for other nation(s) - possible switch/mismatch
123,Alphonso Boyle Davies,2000-11-02,DEF,FC Bayern München,58,Canada,Ghana,Buduburam,5.53333,-0.46667,Canada; Liberia,Canadian,,Q23540953,high,wikidata-name+dob,,born abroad; senior caps listed only for other nation(s) - possible switch/mismatch
124,Ali Ahmed,2000-10-10,FWD,Norwich City FC,25,Canada,Canada,Toronto,43.67028,-79.38667,Canada,Canadian,,Q111741178,high,wikidata-name+dob,,senior caps listed only for other nation(s) - possible switch/mismatch
125,Jonathan Osorio,1992-06-12,MID,Toronto FC,92,Canada,Canada,Toronto,43.67028,-79.38667,Canada,Canadian,Canada (U-20),Q10554558,high,wikidata-name+dob,,senior caps listed only for other nation(s) - possible switch/mismatch
126,Richmond Mamah Laryea,1995-01-07,DEF,Toronto FC,77,Canada,Canada,Toronto,43.67028,-79.38667,Canada,Canadian,Canada (U-18),Q22096162,high,wikidata-name+dob,,senior caps listed only for other nation(s) - possible switch/mismatch
127,Niko Kristian Sigur,2003-09-09,DEF,HNK Hajduk Split,19,Canada,Canada,Burnaby,49.25,-122.94917,Canada,Canadian,,Q117830854,high,wikidata-name+dob,,senior caps listed only for other nation(s) - possible switch/mismatch
128,Promise Oluwatobi Emmanuel David,2001-07-03,FWD,Royale Union Saint-Gilloise,11,Canada,Canada,Brampton,43.68333,-79.76667,Canada,Canadian,,Q112988067,high,wikidata-name+dob,,senior caps listed only for other nation(s) - possible switch/mismatch
129,Nathan-Dylan Saliba,2004-02-07,MID,RSC Anderlecht,15,Canada,Canada,Longueuil,45.51408,-73.43803,Canada,Canadian,Canada (U-15),Q116908746,high,web-verified,NO,DOB verified; Canada-only senior & youth (U-15); no nation switch despite Lebanese/Haitian heritage.
130,Jayden Nelson,2002-09-26,FWD,Austin FC,15,Canada,Canada,Brampton,43.68333,-79.76667,Canada,Canadian,Canada (U-17),Q64748312,high,wikidata-name+dob,,senior caps listed only for other nation(s) - possible switch/mismatch
131,Nikola Vasilj,1995-12-02,GK,FC St. Pauli,27,Bosnia and Herzegovina,Bosnia and Herzegovina,Mostar,43.34361,17.8075,Bosnia and Herzegovina; Croatia,Bosnia and Herzegovina,,Q77243490,high,wikidata-name+dob,,
132,Nihad Mujakic,1998-04-15,DEF,Gaziantep FK,12,Bosnia and Herzegovina,Bosnia and Herzegovina,Sarajevo,43.85639,18.41306,Bosnia and Herzegovina,Bosnia and Herzegovina,Bosnia and Herzegovina (U-19); Bosnia and Herzegovina (U-21),Q50623645,high,wikidata-name+dob,,
133,Dennis Hadzikadunic,1998-07-09,DEF,UC Sampdoria,32,Bosnia and Herzegovina,Sweden,Malmö,55.58333,13,Sweden; Bosnia and Herzegovina,Bosnia and Herzegovina,Sweden (U-21),Q27654739,high,wikidata-name+dob,,born abroad
134,Tarik Muharemovic,2003-02-28,DEF,US Sassuolo,15,Bosnia and Herzegovina,Slovenia,Ljubljana,46.05139,14.50611,Slovenia; Bosnia and Herzegovina,Bosnia and Herzegovina,Bosnia and Herzegovina (U-19); Bosnia and Herzegovina (U-21),Q106620882,high,wikidata-name+dob,,born abroad
135,Sead Kolasinac,1993-06-20,DEF,Atalanta Bergamo,66,Bosnia and Herzegovina,Germany,Karlsruhe,49.01667,8.4,Germany; Bosnia and Herzegovina,Bosnia and Herzegovina,Germany (U-18); Germany (U-19); Germany (U-20),Q127914,high,wikidata-name+dob,,born abroad
136,Benjamin Tahirovic,2003-03-03,MID,Brøndby IF,29,Bosnia and Herzegovina,Sweden,Spånga-Tensta city district,59.39417,17.90111,Sweden; Bosnia and Herzegovina,Bosnia and Herzegovina,,Q115194574,high,wikidata-name+dob,,born abroad
137,Amar Dedic,2002-08-18,DEF,SL Benfica,29,Bosnia and Herzegovina,Austria,Zell am See,47.32333,12.79806,Bosnia and Herzegovina,Bosnia and Herzegovina,Bosnia and Herzegovina (U-17); Bosnia and Herzegovina (U-19); Bosnia and Herzegovina (U-21),Q65948595,high,wikidata-name+dob,,born abroad
138,Armin Gigovic,2002-04-06,MID,BSC Young Boys,21,Bosnia and Herzegovina,Denmark,Lund,55.70831,13.19916,Sweden; Bosnia and Herzegovina,Bosnia and Herzegovina; Sweden,Sweden (U-17); Sweden (U-19); Sweden (U-21),Q70251271,high,wikidata-name+dob,,born abroad; senior caps for multiple nations
139,Samed Bazdar,2004-01-31,FWD,Jagiellonia Bia ł ystok,14,Bosnia and Herzegovina,Serbia,Novi Pazar,43.15,20.51667,Serbia; Bosnia and Herzegovina,Bosnia and Herzegovina; Serbia,,Q107284545,high,wikidata-name+dob,,born abroad; senior caps for multiple nations
140,Ermedin Demirovic,1998-03-25,FWD,VfB Stuttgart,41,Bosnia and Herzegovina,Germany,Hamburg,53.55,10,Bosnia and Herzegovina; Germany,Bosnia and Herzegovina,Bosnia and Herzegovina (U-17); Bosnia and Herzegovina (U-19); Bosnia and Herzegovina (U-21),Q47067481,high,wikidata-name+dob,,born abroad
141,Edin Dzeko,1986-03-17,FWD,FC Schalke 04,148,Bosnia and Herzegovina,Bosnia and Herzegovina,Sarajevo,43.85639,18.41306,Bosnia and Herzegovina,Bosnia and Herzegovina,Bosnia and Herzegovina (U-19); Bosnia and Herzegovina (U-21),Q153786,high,wikidata-name+dob,,
142,Mladen Jurkas,2007-10-07,GK,FK Borac Banja Luka,0,Bosnia and Herzegovina,Bosnia and Herzegovina,Doboj,44.73333,18.13333,Bosnia and Herzegovina,,Bosnia and Herzegovina (U-17); Bosnia and Herzegovina (U-21),Q140007173,high,wikidata-name+dob,,
143,Ivan Basic,2002-04-30,MID,FC Astana,18,Bosnia and Herzegovina,Croatia,Imotski,43.45,17.21667,Bosnia and Herzegovina; Croatia,Bosnia and Herzegovina,Bosnia and Herzegovina (U-19); Bosnia and Herzegovina (U-21),Q111536418,high,wikidata-name+dob,,born abroad
144,Ivan Sunjic,1996-10-09,MID,Pafos FC,12,Bosnia and Herzegovina,Bosnia and Herzegovina,Zenica,44.20167,17.90389,Croatia; Bosnia and Herzegovina,Bosnia and Herzegovina; Croatia,Croatia (U-17); Croatia (U-19); Croatia (U-21),Q19662444,high,wikidata-name+dob,,senior caps for multiple nations
145,Amar Memic,2001-01-20,MID,FC Viktoria Plze ň,14,Bosnia and Herzegovina,Bosnia and Herzegovina,Sarajevo,43.85639,18.41306,Bosnia and Herzegovina,Bosnia and Herzegovina,Bosnia and Herzegovina (U-21),Q124051749,high,wikidata-name+dob,,
146,Amir Hadziahmetovic,1997-03-08,MID,Hull City FC,36,Bosnia and Herzegovina,Denmark,Nexø,55.0625,15.13194,Bosnia and Herzegovina,Bosnia and Herzegovina,Bosnia and Herzegovina (U-17); Bosnia and Herzegovina (U-18); Bosnia and Herzegovina (U-19); Bosnia and Herzegovina (U-21),Q22833412,high,wikidata-name+dob,,born abroad
147,Dzenis Burnic,1998-05-22,MID,Karlsruher SC,21,Bosnia and Herzegovina,Germany,Hamm,51.68139,7.81917,Germany; Bosnia and Herzegovina,Bosnia and Herzegovina,Germany (U-21),Q27468610,high,wikidata-name+dob,,born abroad
148,Nikola Katic,1996-10-10,DEF,FC Schalke 04,18,Bosnia and Herzegovina,Bosnia and Herzegovina,Ljubuški,43.19806,17.54667,Bosnia and Herzegovina,Bosnia and Herzegovina; Croatia,Croatia (U-21),Q27957334,high,wikidata-name+dob,,senior caps for multiple nations
149,Kerim Alajbegovic,2007-09-21,FWD,FC Red Bull Salzburg,11,Bosnia and Herzegovina,Germany,Cologne,50.94222,6.95778,Bosnia and Herzegovina,Bosnia and Herzegovina,Bosnia and Herzegovina (U-17); Bosnia and Herzegovina (U-19); Bosnia and Herzegovina (U-21),Q130741313,high,wikidata-name+dob,,born abroad
150,Esmir Bajraktarevic,2005-03-10,FWD,PSV Eindhoven,17,Bosnia and Herzegovina,USA,Appleton,44.28222,-88.41833,USA; Bosnia and Herzegovina,Bosnia and Herzegovina; USA,USA (U-19); USA (U-23),Q108518721,high,wikidata-name+dob,,born abroad; senior caps for multiple nations
151,Stjepan Radeljic,1997-09-05,DEF,HNK Rijeka,5,Bosnia and Herzegovina,Bosnia and Herzegovina,Travnik,44.22542,17.66687,Bosnia and Herzegovina,Bosnia and Herzegovina,Bosnia and Herzegovina (U-19); Bosnia and Herzegovina (U-21),Q56227031,high,wikidata-name+dob,,
152,Martin Zlomislic,1998-08-16,GK,HNK Rijeka,3,Bosnia and Herzegovina,Bosnia and Herzegovina,Posušje,43.47222,17.32667,Bosnia and Herzegovina; Croatia,Bosnia and Herzegovina,,Q83795769,high,wikidata-name+dob,,
153,Haris Tabakovic,1994-06-20,FWD,Borussia Mönchengladbach,10,Bosnia and Herzegovina,Switzerland,Grenchen,47.19306,7.39583,Switzerland; Bosnia and Herzegovina,Bosnia and Herzegovina,Switzerland (U-19); Switzerland (U-21),Q15257381,high,wikidata-name+dob,,born abroad
154,Arjan Malic,2005-08-28,DEF,SK Sturm Graz,8,Bosnia and Herzegovina,Slovenia,Jesenice,46.43657,14.06017,Slovenia; Bosnia and Herzegovina,Bosnia and Herzegovina,Bosnia and Herzegovina (U-21),Q121028932,high,wikidata-name+dob,,born abroad
155,Jovo Lukic,1998-11-28,FWD,Universitatea Cluj,4,Bosnia and Herzegovina,Bosnia and Herzegovina,Banja Luka,44.7725,17.1925,Bosnia and Herzegovina,Bosnia and Herzegovina,Bosnia and Herzegovina (U-21),Q96182876,high,wikidata-name+dob,,
156,Ermin Mahmic,2005-03-14,MID,FC Slovan Liberec,2,Bosnia and Herzegovina,Austria,Wels,48.15,14.01667,Austria; Bosnia and Herzegovina,Bosnia and Herzegovina,Austria (U-17); Austria (U-21); Bosnia and Herzegovina (U-19),Q123139564,high,wikidata-name+dob,,born abroad
157,Ibrahim Mahmoud Abunada,2000-02-05,GK,Al Rayyan SC,7,Qatar,Qatar,Doha,25.28611,51.52944,Qatar; Palestine,,,Q61911369,high,wikipedia-squad,,
158,Miguel Pedro,1990-08-06,DEF,Al Sadd SC,112,Qatar,Portugal,Algueirão - Mem Martins,38.79411,-9.34511,Portugal; Cabo Verde; Qatar,Qatar,Cabo Verde (U-21),Q7159779,high,wikidata-name+dob,,born abroad
159,Michel Lucas,1990-07-03,DEF,Al Wakrah SC,28,Qatar,Brazil,Curitiba,-25.42972,-49.27194,Brazil; Qatar,Qatar,,Q602311,high,wikidata-name+dob,,born abroad
160,Gueye Issa Laye,1997-12-22,DEF,Al Arabi SC,5,Qatar,Senegal,Dakar,14.7167,-17.4677,Senegal; Qatar,,,Q137392794,high,wikidata-name+dob,,born abroad
161,Gaber Jassem,2002-02-20,DEF,Al Rayyan SC,38,Qatar,Qatar,Doha,25.28611,51.52944,Qatar,,Qatar (U-23),Q80809664,high,wikidata-name+dob,,
162,Hatim Abdulaziz Hatem,1990-10-28,MID,Al Rayyan SC,132,Qatar,Qatar,Doha,25.28611,51.52944,Qatar,Qatar,Qatar (U-23),Q4665805,medium,web-verified,NO,"DOB corrected to 1990-10-28 (was placeholder 1990-01-01); Qatar captain, born Doha; youth Qatar U-23."
163,Alaaeldin Ahmed,1993-01-31,FWD,Al Rayyan SC,78,Qatar,Egypt,Ismailia,30.58333,32.26667,Qatar,Qatar,Qatar (U-20); Qatar (U-23),Q4695740,high,wikidata-name+dob,,born abroad
164,Junior Edmilson,1994-08-19,FWD,Al Duhail SC,17,Qatar,Belgium,Liège,50.63972,5.57056,Brazil; Belgium; Qatar,,,Q1957458,high,wikidata-name+dob,,born abroad
165,Mohammed Mohammed Muntari,1993-12-20,FWD,Al Gharafa SC,74,Qatar,Ghana,Kumasi,6.7,-1.625,Ghana; Qatar,Qatar,,Q18705783,high,wikidata-name+dob,,born abroad
166,Khalid Hassan Alhaydos,1990-12-11,FWD,Al Sadd SC,190,Qatar,Qatar,Doha,25.28611,51.52944,Qatar,Qatar,Qatar (U-20); Qatar (U-23),Q5679556,high,wikipedia-squad,,
167,Hassan Akram,1996-11-18,FWD,Al Sadd SC,137,Qatar,Qatar,Doha,25.28611,51.52944,Qatar,Qatar,Qatar (U-20); Qatar (U-23),Q19882804,high,wikidata-name+dob,,
168,Karim Karim Boudiaf,1990-09-16,MID,Al Duhail SC,129,Qatar,France,Rueil-Malmaison,48.87778,2.18833,France; Qatar,Qatar,,Q3812986,high,wikidata-name+dob,,born abroad
169,Mohamed Ayoub Aloui,2005-03-11,DEF,Al Gharafa SC,8,Qatar,Qatar,Doha,25.2854,51.531,Qatar,,,Q139770039,high,wikipedia-squad,,
170,Elamin Homam,1999-08-25,DEF,Cultural Leonesa,77,Qatar,Qatar,Doha,25.28611,51.52944,Qatar,Qatar,Qatar (U-20); Qatar (U-23),Q64364375,high,wikipedia-squad,,
171,Abdurisag Yusuf Abdurisag,1999-08-06,FWD,Al Wakrah SC,45,Qatar,Qatar,Doha,25.2854,51.531,Qatar,Qatar,Qatar (U-20); Qatar (U-23),Q64211871,high,wikidata-name+dob,,
172,KHOUKHIBoualem Boualem,1990-07-09,DEF,Al Sadd SC,129,Qatar,Algeria,Bou Ismaïl,36.65,2.7,Algeria; Qatar,Qatar,Algeria (U-23),Q3643114,high,wikipedia-squad,,born abroad
173,Mohamed Ahmed Alganehi,2000-09-22,MID,Al Gharafa SC,15,Qatar,Qatar,Doha,25.28611,51.52944,Qatar,Qatar,,Q61983513,high,wikipedia-squad,,
174,Hussain Sultan,1996-04-07,DEF,Al Duhail SC,20,Qatar,Qatar,Doha,25.2854,51.531,Qatar,,,Q27671280,high,wikipedia-squad,,
175,Ali Zainelabdeen Almoez,1996-08-19,FWD,Al Duhail SC,128,Qatar,Sudan,Khartoum,15.60308,32.52654,Qatar,Qatar,Qatar (U-20); Qatar (U-23),Q21011188,high,wikidata-name+dob,,born abroad
176,Fathy Ahmed Fathy,1993-01-25,MID,Al Arabi SC,55,Qatar,Jordan,Amman,31.95,35.93333,Jordan,,,Q33541239,high,wikipedia-squad,,born abroad
177,Zakaria Salah Zakaria,1999-04-24,GK,Al Duhail SC,10,Qatar,Qatar,Doha,25.2854,51.531,Qatar,Qatar,,Q95680243,high,wikidata-name+dob,,
178,Aissa Meshaal Barsham,1998-02-14,GK,Al Sadd SC,60,Qatar,Qatar,Doha,25.28611,51.52944,Qatar,Qatar,,Q52771823,high,wikidata-name+dob,,
179,Omer Assim Madibo,1996-10-22,MID,Al Wakrah SC,65,Qatar,Qatar,Doha,25.2854,51.531,Qatar,,Qatar (U-20),Q21000530,high,wikidata-name+dob,,
180,Mohammad Tahsin,2006-06-16,FWD,Al Duhail SC,5,Qatar,Qatar,Doha,25.28545,51.53096,Qatar,Qatar,Qatar (U-16); Qatar (U-18),Q126258395,medium,web-verified,NO,Matched to Tahsin Jamshid (QID Q126258395). Born Qatar; Doha per secondary sources (Wikipedia: only 'Qatar'). Caps (5) unverified.
181,Alhussein Alhashmi,2003-08-15,DEF,Al Arabi SC,10,Qatar,Qatar,Doha,25.2854,51.531,Qatar,Qatar,Qatar (U-20); Qatar (U-23),Q133505943,medium,web-verified,NO,Born Qatar; city Doha is a low-confidence estimate (no source gives city; population/Al-Arabi prior). Youth Qatar U-20/U-23.
182,Naceur Mohamed Manai,2003-10-30,MID,Al Shamal SC,12,Qatar,Qatar,Doha,25.2854,51.531,Qatar; Tunisia,Qatar,Qatar (U-23),Q137394484,low,web-verified,NO,"Resolved to Mohamed (Naceur) Al-Mannai: DOB 2003-10-30, born Doha (Tunisian descent), defensive midfielder. QID Q137394484 confirmed."
183,Gregor Kobel,1997-12-06,GK,Borussia Dortmund,22,Switzerland,Switzerland,Zurich,47.37444,8.54111,Switzerland,Switzerland,Switzerland (U-21),Q36184031,high,wikidata-name+dob,,
184,Miro Max Maria Muheim,1998-03-24,DEF,Hamburger SV,11,Switzerland,Switzerland,Zurich,47.37444,8.54111,Switzerland,,Switzerland (U-16); Switzerland (U-17); Switzerland (U-18); Switzerland (U-19),Q49167084,high,wikidata-name+dob,,
185,Silvan Dominic Widmer,1993-03-05,DEF,1. FSV Mainz 05,60,Switzerland,Switzerland,Aarau,47.3923,8.0446,Switzerland,Switzerland,Switzerland (U-19); Switzerland (U-21),Q114386,high,wikidata-name+dob,,
186,Nico Elvedi,1996-09-30,DEF,Borussia Mönchengladbach,68,Switzerland,Switzerland,Zurich,47.37444,8.54111,Switzerland,Switzerland,Switzerland (U-17); Switzerland (U-18); Switzerland (U-19),Q18637339,high,wikidata-name+dob,,
187,Manuel Obafemi Akanji,1995-07-19,DEF,FC Internazionale Milano,82,Switzerland,Switzerland,Neftenbach,47.52833,8.66806,Switzerland; Nigeria,Switzerland,Switzerland (U-20); Switzerland (U-21),Q19938984,high,wikidata-name+dob,,
188,Denis Lemi Zakaria,1996-11-20,MID,AS Monaco,66,Switzerland,France,Geneva,46.2,6.15,Switzerland,Switzerland,Switzerland (U-19); Switzerland (U-21),Q21066260,high,wikidata-name+dob,,born abroad
189,Breel Donald Embolo,1997-02-14,FWD,Stade Rennais FC,87,Switzerland,Cameroon,Yaoundé,3.85778,11.51806,Switzerland; Cameroon,Switzerland,Switzerland (U-16); Switzerland (U-20); Switzerland (U-21),Q15956282,high,wikidata-name+dob,,born abroad
190,Remo Marco Freuler,1992-04-15,MID,Bologna FC,89,Switzerland,Switzerland,Ennenda,47.03361,9.0775,Switzerland,Switzerland,Switzerland (U-19); Switzerland (U-20); Switzerland (U-21),Q16595441,high,wikidata-name+dob,,
191,Johan Kula Manzambi,2005-10-14,MID,SC Freiburg,13,Switzerland,France,Geneva,46.2,6.15,Switzerland,Switzerland,Switzerland (U-18); Switzerland (U-19); Switzerland (U-20),Q125376751,high,wikidata-name+dob,,born abroad
192,Granit Xhaka,1992-09-27,MID,Sunderland AFC,147,Switzerland,Switzerland,Basel,47.56056,7.59056,Switzerland,Switzerland,Switzerland (U-17); Switzerland (U-18); Switzerland (U-19); Switzerland (U-21),Q514427,high,wikidata-name+dob,,
193,Dan Ndoye,2000-10-25,FWD,Nottingham Forest FC,32,Switzerland,Switzerland,Nyon,46.38196,6.23888,Switzerland,,Switzerland (U-18); Switzerland (U-19); Switzerland (U-21),Q61439485,high,wikidata-name+dob,,
194,Yvon Landry Mvogo,1994-06-06,GK,FC Lorient,13,Switzerland,Cameroon,Yaoundé,3.85778,11.51806,Switzerland; Cameroon,,Switzerland (U-17); Switzerland (U-19); Switzerland (U-21),Q16236380,high,wikidata-name+dob,,born abroad
195,Ricardo Ivan Rodriguez,1992-08-25,DEF,Real Betis,139,Switzerland,Switzerland,Zurich,47.37444,8.54111,Switzerland,Switzerland,Switzerland (U-17); Switzerland (U-18); Switzerland (U-19); Switzerland (U-23),Q666506,high,wikidata-name+dob,,
196,Ardon Jashari,2002-07-30,MID,AC Milan,9,Switzerland,Switzerland,Cham,47.18028,8.45944,Switzerland,Switzerland,Switzerland (U-21),Q98816361,high,wikidata-name+dob,,
197,Djibril Ibrahima Sow,1997-02-06,MID,Sevilla FC,52,Switzerland,Switzerland,Zurich,47.37444,8.54111,Switzerland,,Switzerland (U-21),Q27995699,high,wikidata-name+dob,,
198,Christian Andreas Fassnacht,1993-11-11,FWD,BSC Young Boys,23,Switzerland,Switzerland,Zurich,47.37444,8.54111,Switzerland,,,Q27306208,high,wikidata-name+dob,,
199,Ruben Estephan Vargas,1998-08-05,FWD,Sevilla FC,62,Switzerland,Switzerland,Adligenswil,47.07056,8.365,Switzerland,Switzerland,Switzerland (U-20); Switzerland (U-21),Q38053896,high,wikidata-name+dob,,
200,Eray Ervin Coemert,1998-02-04,DEF,Valencia CF,22,Switzerland,Switzerland,Rheinfelden,47.55389,7.79583,Switzerland,,Switzerland (U-17); Switzerland (U-21),Q24052364,high,wikipedia-squad,,
201,Noah Arinzechukwu Okafor,2000-05-24,FWD,Leeds United FC,25,Switzerland,Switzerland,Bern,46.948,7.4474,Switzerland,,,Q55286732,high,wikidata-name+dob,,
202,Michel Aebischer,1997-01-06,MID,Pisa SC,41,Switzerland,Switzerland,Bern,46.948,7.4474,Switzerland,,Switzerland (U-21),Q27469951,high,wikidata-name+dob,,
203,Marvin Keller,2002-07-03,GK,BSC Young Boys,1,Switzerland,United Kingdom,London,51.50722,-0.1275,Switzerland,,,Q108698128,high,wikidata-name+dob,,born abroad
204,Fabian Rieder,2002-02-16,MID,FC Augsburg,29,Switzerland,Switzerland,Koppigen,47.13444,7.60417,Switzerland,,,Q101033685,high,wikidata-name+dob,,
205,Mohamed Zeki Amdouni,2000-12-04,FWD,Burnley FC,30,Switzerland,France,Geneva,46.2,6.15,Switzerland,,,Q106882153,high,wikidata-name+dob,,born abroad
206,Aurèle Florian Amenda,2003-07-31,DEF,Eintracht Frankfurt,7,Switzerland,Switzerland,Biel/Bienne,47.13722,7.24722,Switzerland,,,Q111805882,high,wikidata-name+dob,,
207,Luca Antony Jaquez,2003-06-02,DEF,VfB Stuttgart,3,Switzerland,Switzerland,Lucerne,47.0523,8.3059,Switzerland,,,Q122160785,high,wikidata-name+dob,,
208,Cedric Jan Itten,1996-12-27,FWD,Fortuna Düsseldorf,15,Switzerland,Switzerland,Basel,47.56056,7.59056,Switzerland,,Switzerland (U-19); Switzerland (U-20); Switzerland (U-21),Q22965497,high,wikidata-name+dob,,
209,Ramsés Alisson,1992-10-02,GK,Liverpool FC,79,Brazil,Brazil,Novo Hamburgo,-29.67778,-51.13083,Brazil,Brazil,Brazil (U-17); Brazil (U-20),Q18237361,high,wikidata-name+dob,,
210,José Ederson Silva,1999-07-07,MID,Atalanta Bergamo,3,Brazil,Brazil,Campo Grande,-20.46861,-54.62222,Brazil,,,Q59150057,high,wikidata-name+dob,,
211,Gabriel Gabriel Magalhaes,1997-12-19,DEF,Arsenal FC,18,Brazil,Brazil,São Paulo,-23.55039,-46.63395,Brazil,Brazil,Brazil (U-20); Brazil (U-23),Q25175970,high,wikidata-name+dob,,
212,MARQUINHOSMarcos,1994-05-14,DEF,Paris Saint-Germain,106,Brazil,Brazil,São Paulo,-23.55039,-46.63395,Brazil; Portugal,Brazil,Brazil (U-17); Brazil (U-20); Brazil (U-23),Q39230,high,wikipedia-squad,,
213,Henrique,1992-02-23,MID,Manchester United FC,87,Brazil,Brazil,São José dos Campos,-23.17889,-45.88694,Brazil,Brazil,Brazil (U-17); Brazil (U-20),Q616664,high,wikipedia-squad,,
214,Sandro Alex,1991-01-26,DEF,CR Flamengo,45,Brazil,Brazil,Catanduva,-21.13778,-48.97278,Brazil,Brazil,Brazil (U-20); Brazil (U-23),Q551192,high,wikidata-name+dob,,
215,José Vinicius,2000-07-12,FWD,Real Madrid C. F.,50,Brazil,Brazil,São Gonçalo,-22.82694,-43.05389,Brazil; Spain,Brazil,Brazil (U-15); Brazil (U-17); Brazil (U-20),Q28973866,high,wikidata-name+dob,,
216,GUIMARAESBruno Bruno,1997-11-16,MID,Newcastle United FC,44,Brazil,Brazil,Rio de Janeiro,-22.91111,-43.20556,Brazil; Spain,Brazil,Brazil (U-23),Q58323172,high,wikipedia-squad,,
217,Matheus Matheus Cunha,1999-05-27,FWD,Manchester United FC,24,Brazil,Brazil,João Pessoa,-7.12,-34.88,Brazil,Brazil,Brazil (U-23),Q35831063,high,wikidata-name+dob,,
218,Neymar Neymar Jr,1992-02-05,FWD,Santos FC,128,Brazil,Brazil,Mogi das Cruzes,-23.52278,-46.19306,Brazil,Brazil,Brazil (U-17); Brazil (U-20); Brazil (U-23),Q142794,high,wikidata-name+dob,,
219,Raphael Raphinha,1996-12-14,FWD,FC Barcelona,40,Brazil,Brazil,Porto Alegre,-30.03278,-51.23,Brazil,Brazil,,Q28861547,high,wikipedia-squad,,
220,Weverton Weverton,1987-12-13,GK,Grêmio FBPA,11,Brazil,Bolivia,Rio Branco,-9.97806,-67.81167,Brazil,,,Q8040741,high,wikipedia-squad,,born abroad
221,Luiz Danilo,1991-07-15,DEF,CR Flamengo,71,Brazil,Brazil,Bicas,-21.725,-43.05889,Brazil,Brazil,Brazil (U-20); Brazil (U-23),Q437329,high,wikidata-name+dob,,
222,Bremer Bremer,1997-03-18,DEF,Juventus FC,8,Brazil,Brazil,Itapitanga,-14.42278,-39.565,Brazil,Brazil,,Q38693097,high,wikipedia-squad,,
223,PEREIRALeonardo Leo,1996-01-31,DEF,CR Flamengo,4,Brazil,Brazil,Curitiba,-25.42972,-49.27194,Brazil,,Brazil (U-17); Brazil (U-20),Q18199184,high,wikipedia-squad,,
224,Douglas Douglas Santos,1994-03-22,DEF,FC Zenit St. Petersburg,8,Brazil,Brazil,João Pessoa,-7.12,-34.88,Brazil; Russia,Brazil,Brazil (U-20); Brazil (U-23),Q10268484,high,wikidata-name+dob,,
225,Henrique Fabinho,1993-10-23,MID,Al Ittihad,34,Brazil,Brazil,Campinas,-22.90091,-47.05729,Brazil,Brazil,Brazil (U-20); Brazil (U-23),Q641425,high,wikipedia-squad,,
226,Danilo Danilo Santos,2001-04-29,MID,Botafogo,5,Brazil,Brazil,Salvador,-12.98306,-38.49278,Brazil,,,Q99557093,high,wikipedia-squad,,
227,Felipe Endrick,2006-07-21,FWD,Olympique Lyonnais,17,Brazil,Brazil,Taguatinga,-15.83333,-48.05639,Brazil,Brazil,Brazil (U-17); Brazil (U-23),Q110644260,high,wikidata-name+dob,,
228,Lucas Lucas Paqueta,1997-08-27,MID,CR Flamengo,64,Brazil,Brazil,Rio de Janeiro,-22.91111,-43.20556,Brazil,Brazil,,Q30089624,high,wikidata-name+dob,,
229,Henrique André Luiz,2001-01-02,FWD,FC Zenit St. Petersburg,16,Brazil,Brazil,Petrópolis,-22.505,-43.17889,Brazil,Brazil,Brazil (U-20),Q101764291,high,wikidata-name+dob,,
230,MARTINELLIGabriel Gabriel,2001-06-18,FWD,Arsenal FC,23,Brazil,Brazil,Guarulhos,-23.46667,-46.53333,Brazil,Brazil,Brazil (U-23),Q61460651,high,wikipedia-squad,,
231,Ederson Ederson,1993-08-17,GK,Fenerbahçe SK,32,Brazil,Brazil,Brasília,-15.7939,-47.8828,Brazil; Portugal,Brazil,Brazil (U-20),Q17074511,high,wikipedia-squad,,
232,IBANEZRoger Roger,1998-11-23,DEF,Al Ahli FC,8,Brazil,Brazil,Canela,-29.36583,-50.81583,Brazil,,,Q55363875,high,wikipedia-squad,,
233,Thiago Igor Thiago,2001-06-26,FWD,Brentford FC,5,Brazil,Brazil,Gama,-16.01944,-48.06694,Brazil,Brazil,,Q83639138,high,wikidata-name+dob,,
234,Vitor Rayan,2006-08-03,FWD,AFC Bournemouth,2,Brazil,Brazil,Rio de Janeiro,-22.91111,-43.20556,Brazil,,,Q115937989,high,wikidata-name+dob,,
235,Yassine Bounou,1991-04-05,GK,Al Hilal SC,91,Morocco,Canada,Montreal,45.50334,-73.58684,Morocco; Canada,Morocco,Morocco (U-20); Morocco (U-23),Q3571952,high,wikidata-name+dob,,born abroad
236,Achraf Hakimi,1998-11-04,DEF,Paris Saint-Germain,97,Morocco,Spain,Madrid,40.41694,-3.70333,Spain; Morocco,Morocco,Morocco (U-23),Q26932598,high,wikidata-name+dob,,born abroad
237,Noussair Mazraoui,1997-11-14,DEF,Manchester United FC,46,Morocco,Netherlands,Leiderdorp,52.16167,4.52833,Netherlands; Morocco,Morocco,,Q26266244,high,wikidata-name+dob,,born abroad
238,Sofyan Amrabat,1996-08-21,MID,Real Betis,75,Morocco,Netherlands,Huizen,52.2994,5.2531,Morocco; Netherlands,Morocco,Morocco (U-17); Netherlands (U-15),Q18428483,high,wikidata-name+dob,,born abroad
239,Marwane Saadane,1992-01-17,DEF,Al Fateh SC,17,Morocco,Morocco,Rabat,34.0209,-6.8416,Morocco,Morocco,,Q21622757,high,wikidata-name+dob,,
240,Ayyoub Bouaddi,2007-10-02,MID,Lille OSC,4,Morocco,France,Senlis,49.20722,2.58667,France; Morocco,Morocco,France (U-16); France (U-17); France (U-18); France (U-20); France (U-21),Q122971833,high,wikidata-name+dob,,born abroad
241,Chemsdine Talbi,2005-05-09,MID,Sunderland AFC,6,Morocco,Belgium,Sambreville,50.45,4.6,Belgium; Morocco,,,Q113510254,high,wikidata-name+dob,,born abroad
242,Azz-Eddine Ounahi,2000-04-19,MID,Girona FC,50,Morocco,Morocco,Casablanca,33.59917,-7.62,Morocco; France,,,Q108109586,high,wikipedia-squad,,
243,Soufiane Rahimi,1996-06-02,FWD,Al Ain FC,38,Morocco,Morocco,Casablanca,33.59917,-7.62,Morocco,Morocco,,Q56247602,high,wikidata-name+dob,,
244,Brahim Diaz,1999-08-03,FWD,Real Madrid C. F.,27,Morocco,Spain,Málaga,36.71667,-4.41667,Morocco; Spain,Morocco; Spain,Spain (U-17); Spain (U-19); Spain (U-21),Q26973015,high,wikidata-name+dob,,born abroad; senior caps for multiple nations
245,Ismael Saibari,2001-01-28,MID,PSV Eindhoven,31,Morocco,Spain,Terrassa,41.56111,2.00806,Morocco; Spain,Morocco,Morocco (U-23),Q98784065,high,wikidata-name+dob,,born abroad
246,Monir El Kajoui,1989-05-10,GK,RS Berkane,52,Morocco,Spain,Melilla,35.2825,-2.9475,Spain; Morocco,Morocco,,Q18062338,high,wikipedia-squad,,born abroad
247,Zakaria El Ouahdi,2001-12-31,DEF,KRC Genk,3,Morocco,Belgium,Hoboken,51.1736,4.3483,Belgium; Morocco,,Morocco (U-23),Q108156269,high,wikidata-name+dob,,born abroad
248,Issa Laye Lucas Jean Diop,1997-01-09,DEF,Fulham FC,5,Morocco,France,Toulouse,43.60444,1.44333,France; Morocco,,France (U-16); France (U-17); France (U-18); France (U-19); France (U-20); France (U-21),Q21621180,high,wikidata-name+dob,,born abroad
249,Samir El Mourabet,2005-10-06,MID,RC Strasbourg,5,Morocco,France,Strasbourg,48.57333,7.75222,France; Morocco,,,Q135616172,high,wikidata-name+dob,,born abroad
250,Gessime Ben Youssef Mustapha Yassine,2005-11-22,MID,RC Strasbourg,4,Morocco,France,Salon-de-Provence,43.64056,5.09722,France,,Morocco (U-20),Q126436400,high,wikidata-name+dob,,born abroad
251,Mohamed Amine Sbai,2000-11-05,FWD,Angers SCO,2,Morocco,Morocco,Sidi Kacem,34.21,-5.7,Morocco; France,,,Q114841915,high,wikidata-name+dob,,
252,Chadi Riad,2003-06-17,DEF,Crystal Palace FC,7,Morocco,Spain,Palma,39.56667,2.64972,Morocco,Morocco,Morocco (U-20); Morocco (U-23),Q104784108,high,wikidata-name+dob,,born abroad
253,Youssef Belammari,1998-09-20,DEF,Al Ahly FC,18,Morocco,Morocco,Casablanca,33.59917,-7.62,Morocco,,,Q110964329,high,wikidata-name+dob,,
254,Ayoub El Kaabi,1993-06-25,FWD,Olympiacos FC,71,Morocco,Morocco,Casablanca,33.59917,-7.62,Morocco,Morocco; Morocco A',,Q42948040,high,wikidata-name+dob,,senior caps for multiple nations
255,Ayoube Amaimouni,2004-11-30,FWD,Eintracht Frankfurt,3,Morocco,Spain,Vic,41.93038,2.25457,Morocco; Spain,,,Q137705019,high,wikidata-name+dob,,born abroad
256,Ahmed Reda Tagnaouti,1996-04-05,GK,ASFAR,3,Morocco,Morocco,Fez,34.04333,-5.00333,Morocco,Morocco,,Q28529932,high,wikidata-name+dob,,
257,Bilal El Khannouss,2004-05-10,MID,VfB Stuttgart,38,Morocco,Belgium,Strombeek-Bever,50.9103,4.3561,Belgium; Morocco,Morocco,Belgium (U-15); Belgium (U-16); Belgium (U-17); Belgium (U-18); Morocco (U-20); Morocco (U-23),Q105955374,high,wikidata-name+dob,,born abroad
258,Neil Yoni El Aynaoui,2001-07-02,MID,AS Roma,17,Morocco,France,Nancy,48.69278,6.18361,France; Morocco,,,Q107745867,high,wikidata-name+dob,,born abroad
259,Redouane Halhal,2003-03-05,DEF,KV Mechelen,3,Morocco,France,Montpellier,43.61092,3.87723,Morocco; France,,,Q120389429,high,wikidata-name+dob,,born abroad
260,Anass Salah Eddine,2002-01-18,DEF,PSV Eindhoven,10,Morocco,Netherlands,Amsterdam,52.36667,4.88333,Netherlands; Morocco,,,Q65131685,high,wikidata-name+dob,,born abroad
261,Johny Placide,1988-01-29,GK,SC Bastia,84,Haiti,France,Montfermeil,48.89833,2.56472,France; Haiti,Haiti,France (U-21); Haiti (U-23),Q2749342,high,wikidata-name+dob,,born abroad
262,Carlens Jean Fedlaire Ruby Arcus,1996-06-28,DEF,Angers SCO,57,Haiti,Haiti,Port-au-Prince,18.54694,-72.34028,Haiti,Haiti,,Q20740578,high,wikidata-name+dob,,
263,Keeto Thermoncy,2006-03-29,DEF,BSC Young Boys,1,Haiti,Switzerland,Fribourg,46.8,7.15,Switzerland; Haiti,,,Q136466749,high,wikidata-name+dob,,born abroad
264,Ricardo Ade,1990-05-21,DEF,LDU Quito,62,Haiti,Haiti,Saint-Marc,19.11667,-72.7,Haiti,,,Q28801770,high,wikidata-name+dob,,
265,Hannes Piterson Delcroix,1999-02-28,DEF,FC Lugano,8,Haiti,Haiti,Petite-Rivière-de-l'Artibonite,19.13333,-72.48333,Haiti; Belgium,,,Q56011432,high,wikidata-name+dob,,
266,Carl Fred Sainte,2002-08-09,MID,El Paso Locomotive FC,26,Haiti,Haiti,Grand-Goâve,18.43333,-72.76667,Haiti,,,Q111345092,high,wikidata-name+dob,,
267,Derrick Burckley Etienne,1996-11-25,FWD,Toronto FC,50,Haiti,USA,Richmond,37.54083,-77.43667,Haiti; USA,Haiti,Haiti (U-17); Haiti (U-20); Haiti (U-23),Q21005754,high,wikidata-name+dob,,born abroad
268,Martin Yves Roberns Didier Experience,1999-03-09,DEF,AS Nancy,22,Haiti,Panama,Panama City,8.97111,-79.53472,Panama,,,Q117842510,high,wikipedia-squad,,born abroad
269,Duckens Nazon,1994-04-07,FWD,Esteghlal Tehran FC,83,Haiti,France,Châtenay-Malabry,48.76528,2.27806,Haiti; France,Haiti,,Q16916422,high,wikidata-name+dob,,born abroad
270,Jean Ricner Bellegarde,1998-06-27,MID,Wolverhampton Wanderers FC,11,Haiti,France,Colombes,48.92361,2.25222,France; Haiti,,,Q26251607,high,wikidata-name+dob,,born abroad
271,Don Deedson Deedson,2001-02-11,FWD,FC Dallas,33,Haiti,Haiti,Tabarre,18.58333,-72.26667,Haiti,,,Q72697581,high,wikidata-name+dob,,
272,Alexandre Jr Pierre,2001-02-25,GK,FC Sochaux-Montbéliard,17,Haiti,France,Aubervilliers,48.91111,2.3825,France; Haiti,,,Q112623666,high,wikidata-name+dob,,born abroad
273,Markhus Lacroix,1993-10-14,DEF,Colorado Springs Switchbacks FC,16,Haiti,USA,New Egypt,40.0651,-74.527,USA; Haiti,,,Q21621771,high,wikidata-name+dob,,born abroad
274,Garven-Michee Metusala,1999-12-31,DEF,Colorado Springs Switchbacks FC,15,Haiti,Canada,Terrebonne,45.7,-73.63333,Haiti; Canada,,,Q107370468,high,wikipedia-squad,,born abroad
275,Ruben Fritzner Providence,2001-07-07,FWD,Almere City FC,16,Haiti,France,Lagny-sur-Marne,48.87806,2.70667,France; Haiti,,,Q114355328,high,wikidata-name+dob,,born abroad
276,Lenny Alvin Pico Joseph,2000-10-12,FWD,Ferencvárosi TC,3,Haiti,France,Paris,48.8566,2.3522,France; Haiti,,,Q108000394,high,wikidata-name+dob,,born abroad
277,Danley Jean Jacques,2000-05-20,MID,Philadelphia Union,32,Haiti,Haiti,Petit-Goâve,18.43139,-72.86694,Haiti,,,Q113393306,high,wikidata-name+dob,,
278,Wilson Isidor,2000-08-27,FWD,Sunderland AFC,5,Haiti,France,Rennes,48.11417,-1.68083,France; Haiti,,,Q58484930,high,wikidata-name+dob,,born abroad
279,Yassin Enzo Fortune,1999-01-30,FWD,FC Vizela,5,Haiti,France,Aubervilliers,48.91111,2.3825,France; Haiti,,France (U-16); France (U-17),Q23772079,high,wikidata-name+dob,,born abroad
280,Frantzdy Pierrot,1995-03-29,FWD,Çaykur Rizespor,54,Haiti,Haiti,Port-au-Prince,18.54694,-72.34028,Haiti; USA,Haiti,,Q55820193,high,wikidata-name+dob,,
281,Josue Jeremie Casimir,2001-09-24,FWD,AJ Auxerre,8,Haiti,France,Baie-Mahault,16.2675,-61.58694,France; Haiti,,,Q100792937,high,wikidata-name+dob,,born abroad
282,Jean-Kévin Duverne,1997-07-12,DEF,KAA Gent,17,Haiti,France,Paris,48.85667,2.35222,France; Haiti,,,Q26251605,high,wikidata-name+dob,,born abroad
283,Josue Duverger,2000-04-27,GK,FC Cosmos Koblenz,7,Haiti,Canada,Montreal,45.50334,-73.58684,Canada; Haiti,,,Q42926090,high,wikidata-name+dob,,born abroad
284,Wilguens Raphael Polynice Paugain,2001-08-24,DEF,SV Zulte Waregem,8,Haiti,Haiti,Thomazeau,18.65,-72.1,France,,,Q128210274,high,wikidata-name+dob,,
285,Dominique Celidor Simon,2000-07-29,MID,FC Tatran Pre š ov,2,Haiti,France,Pontoise,49.05083,2.10083,France; Haiti,,,Q124392516,high,wikidata-name+dob,,born abroad
286,Olivier Woodensky Pierre,2004-12-30,MID,Violette AC,1,Haiti,Haiti,Cité Soleil,18.57778,-72.33194,Haiti,,,Q139813358,high,wikidata-name+dob,,
287,Angus Fraser James Gunn,1996-01-22,GK,Nottingham Forest FC,23,Scotland,United Kingdom,Norwich,52.62861,1.29278,United Kingdom,Scotland,England (U-21),Q20807705,high,wikidata-name+dob,,
288,Aaron Buchanan Hickey,2002-06-10,DEF,Brentford FC,22,Scotland,United Kingdom,Edinburgh,55.9533,-3.1883,United Kingdom,,,Q64010525,high,wikidata-name+dob,,
289,Andrew Henry Robertson,1994-03-11,DEF,Liverpool FC,95,Scotland,United Kingdom,Glasgow,55.86111,-4.25,United Kingdom,Scotland,Scotland (U-21),Q15915040,high,wikidata-name+dob,,
290,Mc,1996-12-08,MID,SSC Napoli,71,Scotland,United Kingdom,Lancaster,54.04889,-2.80139,United Kingdom,Scotland,,Q29624459,high,wikipedia-squad,,
291,Grant Campbell Hanley,1991-11-20,DEF,Hibernian FC,69,Scotland,United Kingdom,Dumfries,55.06667,-3.61667,United Kingdom,Scotland,Scotland (U-19); Scotland (U-21),Q1362064,high,wikidata-name+dob,,
292,Kieran Tierney,1997-06-05,DEF,Celtic FC,56,Scotland,United Kingdom,Douglas,54.15,-4.4775,United Kingdom,Scotland,Scotland (U-19),Q19888012,high,web-verified,NO,"Birthplace confirmed Douglas, Isle of Man (British Crown Dependency, not UK/Scotland); coords correct. Consider born_in = 'Isle of Man' for precision."
293,Mc,1994-10-18,MID,Aston Villa FC,87,Scotland,United Kingdom,Glasgow,55.86111,-4.25,United Kingdom,Scotland,Scotland (U-19); Scotland (U-21),Q10547335,high,wikipedia-squad,,
294,Tyler Robert Fletcher,2007-03-19,MID,Manchester United FC,2,Scotland,United Kingdom,Manchester,53.46667,-2.23333,United Kingdom,,,Q137384640,high,wikidata-name+dob,,
295,Lyndon John Dykes,1995-10-07,FWD,Charlton Athletic FC,52,Scotland,Australia,Gold Coast,-28.01667,153.4,United Kingdom; Australia,Scotland,,Q26405109,high,wikidata-name+dob,,born abroad
296,Che Sac Everton Fred Adams,1996-07-13,FWD,Torino FC,48,Scotland,United Kingdom,Leicester,52.63611,-1.13306,United Kingdom,,England (U-20),Q18683792,high,wikidata-name+dob,,
297,Ryan Christie,1995-02-22,MID,AFC Bournemouth,69,Scotland,United Kingdom,Inverness,57.48389,-4.22583,United Kingdom,,Scotland (U-21),Q16236700,high,wikidata-name+dob,,
298,Liam Patrick Kelly,1996-01-23,GK,Rangers FC,3,Scotland,United Kingdom,Glasgow,55.86111,-4.25,United Kingdom,,,Q27448075,high,wikidata-name+dob,,
299,Jack William Hendry,1995-05-07,DEF,Al Ettifaq FC,39,Scotland,United Kingdom,Glasgow,55.86111,-4.25,United Kingdom,,,Q20027858,high,wikidata-name+dob,,
300,Ross Cameron Stewart,1996-07-11,FWD,Southampton FC,3,Scotland,Austria,Lilienfeld,48.01667,15.6,Austria,Austria,Austria (U-18); Austria (U-19); Austria (U-20); Austria (U-21),Q20078774,high,wikipedia-squad,,born abroad; senior caps listed only for other nation(s) - possible switch/mismatch
301,John Francis Souttar,1996-09-25,DEF,Rangers FC,24,Scotland,United Kingdom,Aberdeen,57.15,-2.1,United Kingdom,,Scotland (U-17); Scotland (U-19); Scotland (U-21),Q3238952,high,wikidata-name+dob,,
302,Dominic John Hyam,1995-12-20,DEF,Wrexham AFC,4,Scotland,United Kingdom,Leuchars,56.3814,-2.8835,United Kingdom,Scotland,Scotland (U-19); Scotland (U-21),Q23007824,high,wikidata-name+dob,,
303,Ben Gannon Gannon-Doak,2005-11-11,FWD,AFC Bournemouth,15,Scotland,United Kingdom,Dalry,55.711,-4.723,United Kingdom,Scotland,Scotland (U-16); Scotland (U-17); Scotland (U-21),Q110739094,high,wikidata-name+dob,,
304,George David Eric Hirst,1999-02-15,FWD,Ipswich Town FC,10,Scotland,United Kingdom,Sheffield,53.38083,-1.47028,United Kingdom,Scotland,England (U-17); England (U-18); England (U-19); England (U-20),Q27914873,high,wikidata-name+dob,,
305,Lewis Ferguson,1999-08-24,MID,Bologna FC,25,Scotland,United Kingdom,Hamilton,55.777,-4.039,United Kingdom,,Scotland (U-21),Q47467341,high,wikidata-name+dob,,
306,Lawrence Shankland,1995-08-10,FWD,Heart Of Midlothian FC,21,Scotland,United Kingdom,Glasgow,55.86111,-4.25,United Kingdom,,Scotland (U-21),Q18331623,high,wikidata-name+dob,,
307,Craig Sinclair Gordon,1982-12-31,GK,Heart Of Midlothian FC,84,Scotland,United Kingdom,Edinburgh,55.95333,-3.18917,United Kingdom,Scotland,Scotland (U-21),Q177331,high,wikidata-name+dob,,
308,Nathan Kenneth Patterson,2001-10-16,DEF,Everton FC,27,Scotland,United Kingdom,Glasgow,55.86111,-4.25,United Kingdom,,,Q83264648,high,wikidata-name+dob,,
309,Mc,1992-01-08,MID,Norwich City FC,59,Scotland,United Kingdom,Rutherglen,55.828,-4.224,United Kingdom,Scotland,Scotland (U-19); Scotland (U-21),Q6391158,high,wikipedia-squad,,
310,Anthony Ralston,1998-11-16,DEF,Celtic FC,27,Scotland,United Kingdom,Glasgow,55.86111,-4.25,United Kingdom,,Scotland (U-21),Q24073962,high,wikidata-name+dob,,
311,Findlay Kenneth Curtis,2006-06-09,FWD,Kilmarnock FC,4,Scotland,United Kingdom,Balfron,56.0718,-4.33726,United Kingdom,,,Q131863254,high,wikidata-name+dob,,
312,Mc,1996-11-12,DEF,GNK Dinamo Zagreb,50,Scotland,United Kingdom,Kirriemuir,56.67362,-3.00503,United Kingdom,,Scotland (U-21),Q24084667,high,wikipedia-squad,,
313,Matthew Charles Turner,1994-06-24,GK,New England Revolution,54,USA,USA,Park Ridge,41.0363,-74.0436,USA; Lithuania,USA,,Q24663885,high,wikidata-name+dob,,
314,Sergiño Gianni Dest,2000-11-03,DEF,PSV Eindhoven,40,USA,Netherlands,Almere,52.37583,5.22556,Netherlands; USA,USA,,Q57456989,high,wikidata-name+dob,,born abroad
315,Christopher Jeffrey Richards,2000-03-28,DEF,Crystal Palace FC,37,USA,USA,Birmingham,33.5175,-86.80944,USA,USA,USA (U-20); USA (U-23),Q60839691,high,wikidata-name+dob,,
316,Tyler Shaan Adams,1999-02-14,MID,AFC Bournemouth,55,USA,USA,Wappingers Falls,41.59917,-73.91806,USA,USA,USA (U-17),Q19871581,high,wikidata-name+dob,,
317,Antonee Robinson,1997-08-08,DEF,Fulham FC,55,USA,United Kingdom,Milton Keynes,52.03333,-0.76667,USA; United Kingdom,USA,,Q35778151,high,wikidata-name+dob,,born abroad
318,Auston Levi-Jesaiah Trusty,1998-08-12,DEF,Celtic FC,8,USA,USA,Media,39.91889,-75.38917,USA,,USA (U-17); USA (U-19); USA (U-20); USA (U-23),Q24007335,high,wikidata-name+dob,,
319,Giovanni Alejandro Reyna,2002-11-13,MID,Borussia Mönchengladbach,39,USA,United Kingdom,Sunderland,54.90444,-1.38111,United Kingdom; Portugal; USA,USA,USA (U-15); USA (U-17),Q75019636,high,wikidata-name+dob,,born abroad
320,Mc,1998-08-28,MID,Juventus FC,67,USA,USA,Little Elm,33.1639,-96.9303,USA,USA,,Q29998966,high,wikipedia-squad,,
321,Ricardo Daniel Pepi,2003-01-09,FWD,PSV Eindhoven,38,USA,USA,El Paso,31.75917,-106.48861,USA,USA,USA (U-17),Q62597239,high,wikidata-name+dob,,
322,Christian Mate Pulisic,1998-09-18,FWD,AC Milan,87,USA,USA,Hershey,40.27833,-76.65111,USA; Croatia,USA,USA (U-17),Q22279773,high,wikidata-name+dob,,
323,Brenden Russell Aaronson,2000-10-22,FWD,Leeds United FC,58,USA,USA,Medford,39.8643,-74.8225,USA,USA,,Q33129609,high,wikidata-name+dob,,
324,Miles Gordon Robinson,1997-03-14,DEF,FC Cincinnatti,40,USA,USA,Arlington,42.41528,-71.15694,USA,,,Q30122953,high,wikidata-name+dob,,
325,Timothy Michael Ream,1987-10-05,DEF,Charlotte FC,83,USA,USA,St. Louis,38.62639,-90.19944,USA,USA,,Q716113,high,wikidata-name+dob,,
326,Sebastian Matthew Berhalter,2001-05-10,MID,Vancouver Whitecaps FC,14,USA,United Kingdom,London,51.50722,-0.1275,United Kingdom; Ireland; USA,,,Q86301356,high,wikidata-name+dob,,born abroad
327,Cristian Roldan,1995-06-03,MID,Seattle Sounders FC,47,USA,USA,Pico Rivera,33.98889,-118.08917,USA,USA,USA (U-20),Q19519224,high,wikidata-name+dob,,
328,Alexander Michael Freeman,2004-08-09,DEF,Villarreal CF,18,USA,USA,Fort Lauderdale,26.13583,-80.14194,USA,USA,USA (U-19); USA (U-23),Q111604014,high,wikidata-name+dob,,
329,Malik Leon Tillman,2002-05-28,MID,Bayer 04 Leverkusen,31,USA,Germany,Nuremberg,49.45389,11.0775,Germany; USA,USA,Germany (U-17); Germany (U-20); Germany (U-21),Q96391665,high,wikidata-name+dob,,born abroad
330,Maximilian Michael Arfsten,2001-04-19,DEF,Columbus Crew,20,USA,USA,Fresno,29.5267,-95.4597,USA,USA,,Q117309867,high,wikidata-name+dob,,
331,Haji Amir Wright,1998-03-27,FWD,Coventry City FC,20,USA,USA,Los Angeles,34.05223,-118.24368,USA,USA,USA (U-17); USA (U-18); USA (U-19); USA (U-23),Q19787021,high,wikidata-name+dob,,
332,Folarin Jolaoluwa Balogun,2001-07-03,FWD,AS Monaco,28,USA,USA,New York City,40.71278,-74.00611,USA; United Kingdom,USA,England (U-21),Q101035007,high,wikidata-name+dob,,
333,Timothy Tarpeh Weah,2000-02-22,FWD,Olympique Marseille,52,USA,USA,Brooklyn,40.65083,-73.94972,USA; France,USA,USA (U-17); USA (U-20),Q31871265,high,wikidata-name+dob,,
334,Mc,1999-02-25,DEF,Toulouse FC,29,USA,USA,Bear,39.6203,-75.6847,USA,USA,USA (U-20),Q27995843,high,wikipedia-squad,,
335,Joseph Michael Scally,2002-12-31,DEF,Borussia Mönchengladbach,26,USA,USA,Lake Grove,40.85833,-73.11667,USA,,USA (U-17),Q54861644,high,wikidata-name+dob,,
336,Matthew Andrew Geary Freese,1998-09-02,GK,New York City FC,16,USA,USA,Wayne,40.04389,-75.38778,USA,,,Q62036070,high,wikidata-name+dob,,
337,Christopher Keith Brady,2004-03-03,GK,Chicago Fire FC,1,USA,USA,Naperville,41.74826,-88.16585,USA,USA,USA (U-15); USA (U-20); USA (U-23),Q98594864,high,wikipedia-squad,,
338,Alejandro Zendejas,1998-02-07,FWD,Club América,14,USA,Mexico,Ciudad Juárez,31.6685,-106.42,USA; Mexico,USA,USA (U-17),Q19972593,high,wikidata-name+dob,,born abroad
339,Roberto Junior Fernandez,1988-03-29,GK,Cerro Porteño,30,Paraguay,Paraguay,Asunción,-25.28,-57.63444,Paraguay,Paraguay,Paraguay (U-20),Q781683,high,wikidata-name+dob,,
340,Victor Gustavo Velazquez,1991-04-17,DEF,Cerro Porteño,14,Paraguay,Paraguay,Villa del Rosario,-24.45,-57.05,Paraguay,,,Q20888302,high,wikidata-name+dob,,
341,Omar Federico Alderete,1996-12-26,DEF,Sunderland AFC,37,Paraguay,Paraguay,Asunción,-25.28,-57.63444,Paraguay,,,Q41800131,high,wikidata-name+dob,,
342,Juan Jose Caceres,2000-06-01,DEF,FC Dynamo Moscow,18,Paraguay,Argentina,Dock Sud,-34.64167,-58.34778,Argentina; Paraguay,,,Q101791178,high,wikidata-name+dob,,born abroad
343,Fabián Cornelio Balbuena,1991-08-23,DEF,Grêmio FBPA,47,Paraguay,Paraguay,Ciudad del Este,-25.51667,-54.61667,Paraguay,Paraguay,,Q16297591,high,wikidata-name+dob,,
344,Júnior Osmar Ignacio Alonso,1993-02-09,DEF,Atlético Mineiro,72,Paraguay,Paraguay,Asunción,-25.28,-57.63444,Paraguay,Paraguay,Paraguay (U-20),Q11091593,high,wikidata-name+dob,,
345,Ramón Sosa,1999-08-31,MID,SE Palmeiras,30,Paraguay,Paraguay,Maracaná,-24.14365,-56.0251,Paraguay,Paraguay,,Q110160871,high,wikidata-name+dob,,
346,Diego Alexander Gomez,2003-03-27,MID,Brighton & Hove Albion FC,25,Paraguay,Paraguay,San Juan Bautista,-26.63333,-57.16667,Paraguay,Paraguay,Paraguay (U-20),Q115978703,high,wikidata-name+dob,,
347,Arnaldo Antonio Sanabria,1996-03-04,FWD,US Cremonese,49,Paraguay,Paraguay,San Lorenzo,-25.34306,-57.50944,Paraguay,Paraguay,Paraguay (U-17); Paraguay (U-20),Q10856523,high,wikidata-name+dob,,
348,Miguel Angel Almiron,1994-02-10,MID,Atlanta United FC,77,Paraguay,Paraguay,Asunción,-25.28,-57.63444,Paraguay,Paraguay,Paraguay (U-17); Peru (U-20),Q16145667,high,wikidata-name+dob,,
349,Mauricio Mauricio,2001-06-22,MID,SE Palmeiras,4,Paraguay,Brazil,São Paulo,-23.55039,-46.63395,Brazil; Paraguay,,,Q65718498,high,wikipedia-squad,,born abroad
350,Orlando Daniel Gill,2000-06-11,GK,CA San Lorenzo,7,Paraguay,Paraguay,San Lorenzo,-25.34306,-57.50944,Paraguay,,,Q60842077,high,wikidata-name+dob,,
351,Jose Maria Canale,1996-07-20,DEF,CA Lanús,2,Paraguay,Paraguay,Villa monica alritmo,-25.38333,-57.33333,Paraguay,,,Q50105161,high,wikidata-name+dob,,
352,Adrián Andrés Cubas,1996-05-22,MID,Vancouver Whitecaps FC,34,Paraguay,Argentina,Aristóbulo del Valle,-27.0952,-54.897,Argentina; Paraguay,Paraguay,Argentina (U-20),Q16298600,medium,web-verified,NO,"DOB corrected to 1996-05-22 (was 1996-05-11). Born Aristóbulo del Valle, Argentina; senior Paraguay, youth Argentina U-20."
353,Gustavo Raul Gomez,1993-05-06,DEF,SE Palmeiras,90,Paraguay,Paraguay,San Juan Bautista,-26.63333,-57.16667,Paraguay,Paraguay,Paraguay (U-17); Paraguay (U-20),Q1033783,high,wikidata-name+dob,,
354,Damián Josue Bobadilla,2001-07-11,MID,São Paulo FC,20,Paraguay,Paraguay,Asunción,-25.28,-57.63444,Paraguay,,,Q116223348,high,wikidata-name+dob,,
355,Alejandro Sebastian Romero Gamarra,1995-01-11,FWD,Al Ain FC,35,Paraguay,Argentina,Ciudadela,-34.63333,-58.53333,Argentina; Paraguay,Paraguay,Argentina (U-20),Q19319791,high,wikidata-name+dob,,born abroad
356,Alex Adrian Arce,1995-06-16,FWD,CS Independiente Rivadavia,16,Paraguay,Paraguay,Carapeguá,-25.76898,-57.24701,Paraguay,,,Q118935199,high,wikidata-name+dob,,
357,Julio Cesar Enciso,2004-01-23,FWD,RC Strasbourg,33,Paraguay,Paraguay,Asunción,-25.2637,-57.5759,Paraguay,Paraguay,,Q85872272,high,wikidata-name+dob,,
358,Braian Oscar Ojeda,2000-06-27,MID,Orlando City SC,17,Paraguay,Paraguay,Villa monica alritmo,-25.38333,-57.33333,Paraguay,,,Q60828724,high,wikidata-name+dob,,
359,Gabriel Avalos,1990-10-12,FWD,CA Independiente,23,Paraguay,Paraguay,Edelira,-26.75,-55.27,Paraguay,Paraguay,,Q14592575,low,web-verified,NO,DOB corrected to 1990-10-12 (was 1991-07-09) per Transfermarkt/SofaScore/BeSoccer. Born Edelira (Hohenau per Wikipedia); senior Paraguay.
360,Gastón Hernán Olveira,1993-04-21,GK,Club Olimpia,1,Paraguay,Uruguay,Montevideo,-34.90592,-56.19131,Paraguay,,,Q18020415,high,wikidata-name+dob,,born abroad
361,Matias Galarza,2002-02-11,MID,Atlanta United FC,15,Paraguay,Paraguay,Asunción,-25.28,-57.63444,Paraguay,,,Q106804819,high,wikidata-name+dob,,
362,Gustavo Ruben Caballero,2001-09-21,MID,Portsmouth FC,2,Paraguay,Paraguay,San Lorenzo,-25.34306,-57.50944,Paraguay,,,Q127179158,high,wikidata-name+dob,,
363,Isidro Miguel Pitta,1999-08-14,FWD,Red Bull Bragantino,5,Paraguay,Paraguay,Asunción,-25.28,-57.63444,Paraguay,,,Q99096411,high,wikidata-name+dob,,
364,Alexandro Maidana,2005-07-26,DEF,CA Talleres,2,Paraguay,Paraguay,Caacupé,-25.38611,-57.14083,Paraguay,,,Q136375048,high,wikidata-name+dob,,
365,Mathew David Ryan,1992-04-08,GK,Levante UD,104,Australia,Australia,Plumpton,-33.75667,150.84278,Australia,Australia,,Q1587689,high,wikidata-name+dob,,
366,Milos Degenek,1994-04-28,DEF,APOEL FC,57,Australia,Croatia,Knin,44.03333,16.18333,Australia,Australia,Australia (U-17); Australia (U-23); Serbia (U-19),Q14309492,high,wikidata-name+dob,,born abroad
367,Alessandro Circati,2003-10-10,DEF,Parma,14,Australia,Italy,Fidenza,44.86636,10.06111,Australia; Italy,,,Q111020508,high,wikidata-name+dob,,born abroad
368,Jacob Michael Italiano,2001-07-30,DEF,Grazer AK,6,Australia,Australia,Canberra,-35.2809,149.13,Australia,,,Q43303848,high,wikidata-name+dob,,
369,Jordan Jacob Bos,2002-10-29,DEF,Feyenoord Rotterdam,28,Australia,Australia,Point Cook,-37.909,144.752,Australia,Australia,,Q109768459,high,wikidata-name+dob,,
370,Jason Kato Geria,1993-05-10,DEF,Albirex Niigata,15,Australia,Australia,Canberra,-35.29306,149.12694,Australia,,Australia (U-20); Australia (U-23),Q10556049,high,wikidata-name+dob,,
371,Mathew Allan Leckie,1991-02-04,FWD,Melbourne City FC,81,Australia,Australia,Melbourne,-37.81417,144.96306,Australia,Australia,Australia (U-20),Q176304,high,wikidata-name+dob,,
372,Connor Isaac Metcalfe,1999-11-05,MID,FC St. Pauli,37,Australia,Australia,Newcastle,-32.91667,151.75,Australia,Australia,,Q51213832,high,wikidata-name+dob,,
373,Mohamed Toure,2004-03-26,FWD,Norwich City FC,11,Australia,Guinea,Conakry,9.50917,-13.71222,Guinea; Australia,,,Q84593316,high,wikidata-name+dob,,born abroad
374,Ajdin Hrustic,1996-07-05,FWD,SC Heracles Almelo,37,Australia,Australia,Dandenong,-37.981,145.215,Australia,,,Q29109911,high,wikidata-name+dob,,
375,Awer Bul Mabil,1995-09-15,FWD,CD Castellón,38,Australia,Kenya,Kakuma,3.70861,34.865,Australia,,,Q4830013,high,wikidata-name+dob,,born abroad
376,Paul David Izzo,1995-01-06,GK,Randers FC,4,Australia,Australia,Adelaide,-34.9275,138.6,Australia,,Australia (U-17); Australia (U-20),Q7151477,high,wikidata-name+dob,,
377,Aiden Connor Oneill,1998-07-04,MID,New York City FC,32,Australia,Australia,Brisbane,-27.46778,153.02778,Australia,,,Q26485052,high,wikipedia-squad,,
378,Cameron Peter Devlin,1998-06-07,MID,Heart Of Midlothian FC,5,Australia,Australia,Sydney,-33.8688,151.2093,Australia,Australia,Australia (U-20); Australia (U-23),Q57017726,medium,web-verified,NO,DOB & identity confirmed (Cammy Devlin). Birth city refined from placeholder to Sydney (Wikipedia); a source suggests suburb Caringbah - verify if needed. Senior & youth (U-20/U-23) Australia.
379,Kai Clifton Trewin,2001-05-18,DEF,New York City FC,6,Australia,Australia,Canberra,-35.29306,149.12694,Australia,Australia,,Q87400019,high,wikidata-name+dob,,
380,Aziz Behich,1990-12-16,DEF,Melbourne City FC,85,Australia,Australia,Moonee Ponds,-37.765,144.92,Australia,Australia,Australia (U-23),Q2947963,high,wikidata-name+dob,,
381,Nestory Irankunda,2006-02-09,FWD,Watford FC,16,Australia,Tanzania,Kigoma,-4.88333,29.63333,Australia,,,Q110486192,high,wikidata-name+dob,,born abroad
382,Patrick Thomas Beach,2003-08-06,GK,Melbourne City FC,3,Australia,Australia,Sydney,-33.86778,151.21,Australia,,,Q126284601,high,wikidata-name+dob,,
383,Harry James Souttar,1998-10-22,DEF,Leicester City FC,39,Australia,United Kingdom,Aberdeen,57.15,-2.1,United Kingdom,Australia,,Q24084205,high,wikidata-name+dob,,born abroad
384,Cristian Volpato,2003-11-15,FWD,US Sassuolo,1,Australia,Australia,Camperdown,-33.89,151.18444,Australia; Italy,,Italy (U-19); Italy (U-20); Italy (U-21),Q109924046,high,wikidata-name+dob,,
385,Cameron Robert Burgess,1995-10-21,DEF,Swansea City AFC,28,Australia,United Kingdom,Aberdeen,57.15,-2.1,United Kingdom,,,Q17496350,high,wikidata-name+dob,,born abroad
386,Jackson Alexander Irvine,1993-03-07,MID,FC St. Pauli,83,Australia,Australia,Melbourne,-37.81417,144.96306,Australia,Australia,Australia (U-20); Australia (U-23); Scotland (U-19),Q10544594,high,wikidata-name+dob,,
387,Nishan Matthew Velupillay,2001-05-07,FWD,Melbourne Victory FC,8,Australia,Australia,Canberra,-35.2809,149.13,Australia,,,Q106916460,high,wikidata-name+dob,,
388,Paul Michael Junior Okon-Engstler,2005-01-24,MID,Sydney FC,7,Australia,Belgium,Ostend,51.22583,2.91944,Australia; Italy,,,Q117000107,high,wikidata-name+dob,,born abroad
389,Lucas Herrington,2007-09-05,DEF,Colorado Rapids,4,Australia,Australia,Brisbane,-27.46778,153.02778,Australia,Australia,Australia (U-20),Q133105064,high,wikidata-name+dob,,
390,Tete Owen Yengi,2000-11-28,FWD,FC Machida Zelvia,2,Australia,Australia,Adelaide,-34.9275,138.6,Australia,,,Q104604531,high,wikidata-name+dob,,
391,Fehmi Mert Gunok,1989-03-01,GK,Fenerbahçe SK,37,Türkiye,Türkiye,Karabük,41.2,32.63333,Türkiye,Turkey A2; Türkiye,Türkiye (U-17); Türkiye (U-19); Türkiye (U-20); Türkiye (U-21),Q1401328,high,wikidata-name+dob,,senior caps for multiple nations
392,Mehmet Zeki Celik,1997-02-17,DEF,AS Roma,62,Türkiye,Türkiye,Yıldırım district,40.1901,29.09765,Türkiye,Türkiye,Türkiye (U-16); Türkiye (U-17); Türkiye (U-18); Türkiye (U-21),Q50628268,high,wikidata-name+dob,,
393,Merih Demiral,1998-03-05,DEF,Al Ahli FC,64,Türkiye,Türkiye,Karamürsel district,40.69139,29.61556,Türkiye,Türkiye,Türkiye (U-17); Türkiye (U-19); Türkiye (U-20); Türkiye (U-21),Q29047921,high,wikidata-name+dob,,
394,Ça ğ lar Soyuncu,1996-05-23,DEF,Fenerbahçe SK,60,Türkiye,Türkiye,İzmir,38.41273,27.13838,Türkiye,Türkiye,Türkiye (U-18); Türkiye (U-19); Türkiye (U-20); Türkiye (U-21),Q19612578,high,wikipedia-squad,,
395,Salih Ozcan,1998-01-11,MID,Borussia Dortmund,31,Türkiye,Germany,Cologne,50.94222,6.95778,Germany; Türkiye,,,Q26965570,high,wikidata-name+dob,,born abroad
396,Orkun Kokcu,2000-12-29,MID,Be ş ikta ş  JK,51,Türkiye,Netherlands,Haarlem,52.38028,4.64056,Netherlands; Türkiye,Türkiye,Netherlands (U-17); Netherlands (U-18); Netherlands (U-19); Türkiye (U-21),Q56788302,high,wikidata-name+dob,,born abroad
397,Muhammed Kerem Akturkoglu,1998-10-21,FWD,Fenerbahçe SK,53,Türkiye,Türkiye,İzmit,40.77188,29.94978,Türkiye,Türkiye,Türkiye (U-18); Türkiye (U-19),Q97725322,high,wikidata-name+dob,,
398,Arda Guler,2005-02-25,FWD,Real Madrid C. F.,31,Türkiye,Türkiye,Altındağ,39.94583,32.85611,Türkiye,Türkiye,Türkiye (U-17),Q108159340,high,wikidata-name+dob,,
399,Deniz Daniel Gul,2004-07-02,FWD,FC Porto,9,Türkiye,Sweden,Stockholm,59.32944,18.06861,Sweden; Türkiye,Türkiye,Sweden (U-19); Sweden (U-20); Sweden (U-21),Q123174990,high,wikidata-name+dob,,born abroad
400,Hakan Calhanoglu,1994-02-08,MID,FC Internazionale Milano,107,Türkiye,Germany,Mannheim,49.48778,8.46611,Germany; Türkiye,Türkiye,Türkiye (U-16); Türkiye (U-17); Türkiye (U-19); Türkiye (U-21),Q763465,high,wikidata-name+dob,,born abroad
401,Kenan Yildiz,2005-05-04,FWD,Juventus FC,29,Türkiye,Germany,Regensburg,49.01667,12.08333,Türkiye,,,Q113184832,high,wikidata-name+dob,,born abroad
402,Altay Bayindir,1998-04-14,GK,Manchester United FC,12,Türkiye,Türkiye,Osmangazi,40.21917,29.04139,Türkiye,Türkiye,Türkiye (U-17); Türkiye (U-19); Türkiye (U-20); Türkiye (U-21),Q57415806,high,wikidata-name+dob,,
403,Evren Eren Elmali,2000-07-07,DEF,Galatasaray SK,23,Türkiye,Türkiye,Kartal,40.90639,29.21111,Türkiye,,,Q98262284,high,wikidata-name+dob,,
404,Abdülker Bardakci,1994-09-07,DEF,Galatasaray SK,28,Türkiye,Türkiye,Meram district,37.83639,32.43833,Türkiye,,Türkiye (U-18); Türkiye (U-19); Türkiye (U-20); Türkiye (U-21),Q318069,high,wikipedia-squad,,
405,Ozan Muhammed Kabak,2000-03-25,DEF,TSG Hoffenheim,30,Türkiye,Türkiye,Çankaya,39.90833,32.84611,Türkiye,Türkiye,Türkiye (U-15); Türkiye (U-16); Türkiye (U-17); Türkiye (U-18),Q53280628,high,wikidata-name+dob,,
406,Ismailİsma Yuksek,1999-01-26,MID,Fenerbahçe SK,33,Türkiye,Türkiye,İznik,40.42889,29.71944,Türkiye,Türkiye,,Q97320541,high,wikipedia-squad,,
407,Can İrfan Kahveci,1995-07-15,FWD,Kasımpa ş a SK,47,Türkiye,Türkiye,Bayat,40.185,32.437,Türkiye,,Türkiye (U-17); Türkiye (U-18); Türkiye (U-20); Türkiye (U-21),Q17708749,high,wikidata-name+dob,,
408,Mert Muldur,1999-04-03,DEF,Fenerbahçe SK,46,Türkiye,Austria,Vienna,48.20833,16.3725,Türkiye; Austria,,,Q53394040,high,wikidata-name+dob,,born abroad
409,Yunus Akgun,2000-07-07,FWD,Galatasaray SK,20,Türkiye,Türkiye,Küçükçekmece,41.02194,28.77722,Türkiye,,,Q56043430,high,wikidata-name+dob,,
410,Ferdi Erenay Kadioglu,1999-10-07,DEF,Brighton & Hove Albion FC,31,Türkiye,Netherlands,Arnhem,51.98333,5.91667,Netherlands; Canada; Türkiye,Türkiye,Netherlands (U-16); Netherlands (U-17); Netherlands (U-18); Netherlands (U-19); Netherlands (U-21),Q26719541,high,wikidata-name+dob,,born abroad
411,Barı ş Alper Yilmaz,2000-05-23,FWD,Galatasaray SK,36,Türkiye,Türkiye,İkizdere,40.77722,40.56083,Türkiye,,,Q107352615,high,wikipedia-squad,,
412,Kaan Ayhan,1994-11-10,MID,Galatasaray SK,73,Türkiye,Germany,Gelsenkirchen,51.51028,7.09417,Türkiye; Germany,,Germany (U-16); Germany (U-17); Germany (U-18); Türkiye (U-17); Türkiye (U-21),Q3191617,high,wikidata-name+dob,,born abroad
413,Ugurcan Cakir,1996-04-05,GK,Galatasaray SK,40,Türkiye,Türkiye,Antalya,36.90812,30.69556,Türkiye,,Türkiye (U-19); Türkiye (U-20),Q19610875,high,wikidata-name+dob,,
414,Oguz Aydin,2000-10-27,FWD,Fenerbahçe SK,11,Türkiye,Netherlands,The Hague,52.08,4.31,Türkiye; Netherlands,,,Q109282705,high,wikidata-name+dob,,born abroad
415,Samet Akaydin,1994-03-13,DEF,Çaykur Rizespor,19,Türkiye,Türkiye,Trabzon,41.005,39.7225,Türkiye,Türkiye,,Q69512938,high,wikidata-name+dob,,
416,Can Yılmaz Uzun,2005-11-11,FWD,Eintracht Frankfurt,6,Türkiye,Germany,Regensburg,49.01667,12.08333,Türkiye; Germany,Türkiye,Türkiye (U-17); Türkiye (U-18),Q118799181,high,wikidata-name+dob,,born abroad
417,Manuel Peter Neuer,1986-03-27,GK,FC Bayern München,125,Germany,Germany,Gelsenkirchen,51.51028,7.09417,Germany,Germany,Germany (U-18); Germany (U-19); Germany (U-20); Germany (U-21),Q107365,high,wikidata-name+dob,,
418,Antonio Ruediger,1993-03-03,DEF,Real Madrid C. F.,83,Germany,Germany,Berlin,52.51667,13.38333,Germany,Germany,Germany (U-18); Germany (U-19); Germany (U-20); Germany (U-21),Q96755,high,wikidata-name+dob,,
419,Waldemar Anton,1996-07-20,DEF,Borussia Dortmund,14,Germany,Uzbekistan,Olmaliq,40.85,69.6,Germany,Germany,Germany (U-21),Q23559699,high,wikidata-name+dob,,born abroad
420,Jonathan Glao Tah,1996-02-11,DEF,FC Bayern München,48,Germany,Germany,Hamburg,53.55,10,Germany,Germany,Germany (U-16); Germany (U-17); Germany (U-19); Germany (U-21),Q14640027,high,wikidata-name+dob,,
421,Aleksandar Pavlovic,2004-05-03,MID,FC Bayern München,12,Germany,Germany,Munich,48.1375,11.575,Germany,Germany,Germany (U-20),Q121068701,high,wikidata-name+dob,,
422,Joshua Walter Kimmich,1995-02-08,DEF,FC Bayern München,111,Germany,Germany,Rottweil,48.16806,8.62472,Germany,Germany,Germany (U-21),Q13865408,high,wikidata-name+dob,,
423,Kai Lukas Havertz,1999-06-11,FWD,Arsenal FC,59,Germany,France,Aachen,50.77621,6.08379,Germany,Germany,Germany (U-16); Germany (U-17); Germany (U-19),Q27310755,high,wikidata-name+dob,,born abroad
424,Leon Christoph Goretzka,1995-02-06,MID,FC Bayern München,71,Germany,Germany,Bochum,51.48333,7.21667,Germany,Germany,Germany (U-16); Germany (U-17); Germany (U-19); Germany (U-21),Q520721,high,wikidata-name+dob,,
425,Jamie Jaleel Jeremy Leweling,2001-02-26,MID,VfB Stuttgart,5,Germany,Germany,Berlin,52.52,13.405,Germany; Ghana,,,Q65964628,high,wikidata-name+dob,,
426,Jamal Musiala,2003-02-26,MID,FC Bayern München,43,Germany,Germany,Stuttgart,48.7775,9.18,Germany; United Kingdom,Germany,England (U-15); England (U-16); England (U-17); England (U-21); Germany (U-16),Q96072055,high,wikidata-name+dob,,
427,Nick Woltemade,2002-02-14,FWD,Newcastle United FC,11,Germany,Germany,Bremen,53.07583,8.80722,Germany,Germany,Germany (U-17); Germany (U-20); Germany (U-21),Q84158344,high,wikidata-name+dob,,
428,Oliver Baumann,1990-06-02,GK,TSG Hoffenheim,13,Germany,Germany,Breisach,48.02889,7.58,Germany,,Germany (U-18); Germany (U-19); Germany (U-20); Germany (U-21),Q129116,high,wikidata-name+dob,,
429,Pascal Alexander GROß GROß Gross,1991-06-15,MID,Brighton & Hove Albion FC,18,Germany,Germany,Mannheim,49.48778,8.46611,Germany,Germany,Germany (U-18); Germany (U-19); Germany (U-20),Q509489,high,wikidata-name+dob,,
430,Maximilian Beier,2002-10-17,FWD,Borussia Dortmund,9,Germany,Germany,Brandenburg an der Havel,52.41414,12.55408,Germany,Germany,,Q80314837,high,wikidata-name+dob,,
431,Nico Cédric Schlotterbeck,1999-12-01,DEF,Borussia Dortmund,28,Germany,Germany,Waiblingen,48.83028,9.31694,Germany,Germany,Germany (U-18); Germany (U-19); Germany (U-20); Germany (U-21),Q62015814,high,wikidata-name+dob,,
432,Angelo Nicolas Stiller,2001-04-04,MID,VfB Stuttgart,8,Germany,Germany,Munich,48.1375,11.575,Germany,Germany,Germany (U-21),Q68676722,high,wikidata-name+dob,,
433,Florian Richard Wirtz,2003-05-03,MID,Liverpool FC,42,Germany,Germany,Pulheim,51,6.8,Germany,Germany,Germany (U-15); Germany (U-16); Germany (U-17); Germany (U-21),Q94699949,high,wikidata-name+dob,,
434,Nathaniel Christopher Brown,2003-06-16,DEF,Eintracht Frankfurt,6,Germany,Germany,Amberg,49.44444,11.84833,Germany,,,Q122351097,high,wikidata-name+dob,,
435,Leroy Aziz Sane,1996-01-11,MID,Galatasaray SK,77,Germany,Germany,Essen,51.45083,7.01306,Germany; Senegal,Germany,Germany (U-19); Germany (U-21),Q16499882,high,wikidata-name+dob,,
436,Nadiem Amiri,1996-10-27,MID,1. FSV Mainz 05,11,Germany,Germany,Ludwigshafen,49.48111,8.43528,Germany,,Germany (U-18); Germany (U-19); Germany (U-20); Germany (U-21),Q19274473,high,wikidata-name+dob,,
437,Alexander Nuebel,1996-09-30,GK,VfB Stuttgart,3,Germany,Germany,Paderborn,51.71667,8.76667,Germany,,Germany (U-21),Q20435178,high,wikipedia-squad,,
438,David Raum,1998-04-22,DEF,RB Leipzig,38,Germany,Germany,Nuremberg,49.45389,11.0775,Germany,Germany,Germany (U-19); Germany (U-20),Q28540571,high,wikidata-name+dob,,
439,Felix Kalu Nmecha,2000-10-10,MID,Borussia Dortmund,9,Germany,Germany,Hamburg,53.55,10,Germany,,,Q60889488,high,wikidata-name+dob,,
440,Malick Thiaw,2001-08-08,DEF,Newcastle United FC,5,Germany,Germany,Düsseldorf,51.22556,6.77667,Germany; Finland,,,Q87268125,high,wikidata-name+dob,,
441,Forzan Assan Ouedraogo,2006-05-09,MID,RB Leipzig,1,Germany,Germany,Mülheim an der Ruhr,51.4275,6.8825,Germany,,Germany (U-16); Germany (U-17),Q114825245,high,wikidata-name+dob,,
442,Deniz Undav,1996-07-19,FWD,VfB Stuttgart,10,Germany,Germany,Varel,53.39694,8.13611,Germany; Türkiye,Germany,,Q55955918,high,wikidata-name+dob,,
443,Eloy Victor Room,1989-02-06,GK,Miami FC,73,Curaçao,Netherlands,Nijmegen,51.8475,5.8625,Netherlands,Curaçao,Netherlands (U-20),Q862963,high,wikidata-name+dob,,born abroad
444,Shurandy Ruggerio Sambo,2001-08-19,DEF,Sparta Rotterdam,8,Curaçao,Netherlands,Geldrop,51.4222,5.5578,Netherlands,Curaçao,,Q62714742,high,wikidata-name+dob,,born abroad
445,Juriën Godfried Juan Gaari,1993-12-23,DEF,Abha Club,60,Curaçao,Netherlands,Kerkrade,50.86667,6.06667,Netherlands,Curaçao,,Q32666318,high,wikidata-name+dob,,born abroad
446,Róshón Felix Romar Jordan Van Eijma,1998-06-09,DEF,RKC Waalwijk,28,Curaçao,Netherlands,Tilburg,51.5575,5.09056,Netherlands,Curaçao,,Q56787768,high,wikidata-name+dob,,born abroad
447,Sherel Constancio Floranus,1998-08-23,DEF,PEC Zwolle,28,Curaçao,Netherlands,Rotterdam,51.92,4.48,Netherlands,Curaçao,Netherlands (U-17); Netherlands (U-21),Q20972384,high,wikidata-name+dob,,born abroad
448,Godfried Roemeratoe,1999-08-19,MID,RKC Waalwijk,29,Curaçao,Netherlands,Oost-Souburg,51.4636,3.6008,Netherlands,Curaçao,,Q60047739,high,wikidata-name+dob,,born abroad
449,Juninho Gracielo Bacuna,1997-08-07,MID,FC Volendam,51,Curaçao,Netherlands,Groningen,53.21889,6.5675,Netherlands,Curaçao,,Q19280531,high,wikidata-name+dob,,born abroad
450,Livano Shyron Liomar Comenencia,2004-02-03,MID,FC Zürich,21,Curaçao,Netherlands,Breda,51.58889,4.77583,Netherlands,Curaçao,,Q108800542,high,wikidata-name+dob,,born abroad
451,Jürgen Leonardo Locadia,1993-11-07,FWD,Miami FC,14,Curaçao,Netherlands,Emmen,52.78333,6.9,Netherlands,Curaçao,Netherlands (U-17); Netherlands (U-19); Netherlands (U-20); Netherlands (U-21),Q1885,high,wikidata-name+dob,,born abroad
452,Leandro Jones Johan Bacuna,1991-08-21,MID,I ğ dır FK,73,Curaçao,Netherlands,Groningen,53.21889,6.5675,Netherlands,Curaçao; Netherlands Antilles,Netherlands (U-19); Netherlands (U-21); Netherlands Antilles (U-20),Q249344,high,wikidata-name+dob,,born abroad; senior caps for multiple nations
453,Jeremy Cornelis Jacobus Antonisse,2002-03-29,FWD,AE Kifisia FC,28,Curaçao,Netherlands,Rosmalen,51.71667,5.36667,Netherlands,Curaçao,,Q104531012,high,wikidata-name+dob,,born abroad
454,Juniffer Naigelino Hansen,2002-05-18,FWD,Middlesbrough FC,7,Curaçao,Netherlands,Hoorn,52.65333,5.07333,Netherlands,Curaçao,,Q64224437,high,wikipedia-squad,,born abroad
455,Tyrese Yurvencey Noslin,2002-09-11,FWD,SC Telstar,7,Curaçao,Netherlands,Amsterdam,52.36667,4.88333,Netherlands,Curaçao,,Q134657698,high,wikidata-name+dob,,born abroad
456,Kenji Joël Gorre,1994-09-29,FWD,Maccabi Haifa FC,38,Curaçao,Netherlands,Spijkenisse,51.83333,4.31667,Netherlands,Curaçao,,Q19969384,high,wikidata-name+dob,,born abroad
457,Jainel Archenir Martha,2003-09-04,MID,Rotherham United FC,9,Curaçao,Netherlands,Rotterdam,51.92,4.48,Netherlands,Curaçao,,Q98781677,high,wikipedia-squad,,born abroad
458,Jearl Erwin Margaritha,2000-04-10,FWD,SK Beveren,23,Curaçao,Netherlands,Groningen,53.21889,6.5675,Netherlands,Curaçao,,Q104780374,high,wikidata-name+dob,,born abroad
459,Brandley Mack-Olien Kuwas,1992-09-19,FWD,FC Volendam,36,Curaçao,Netherlands,Hoorn,52.65333,5.07333,Netherlands,Curaçao,,Q13546781,high,wikidata-name+dob,,born abroad
460,Armando Maria Obispo,1999-03-05,DEF,PSV Eindhoven,7,Curaçao,Netherlands,Boxtel,51.5911,5.3275,Netherlands,,,Q27514541,high,wikidata-name+dob,,born abroad
461,Gervane Zjandric Adonnis Kastaneer,1996-06-09,FWD,Terengganu FC,30,Curaçao,Netherlands,Rotterdam,51.92,4.48,Netherlands,Curaçao,Netherlands (U-21),Q14517123,high,wikidata-name+dob,,born abroad
462,Joshua Benjamin Brenet,1994-03-20,DEF,Kayserispor,18,Curaçao,Netherlands,Kerkrade,50.86667,6.06667,Netherlands,Curaçao,Netherlands (U-19); Netherlands (U-21),Q2342765,high,wikidata-name+dob,,born abroad
463,Tahith Jose Girigorio Djorkaef Chong,1999-12-04,MID,Shefield United FC,7,Curaçao,Curaçao,Willemstad,12.108,-68.935,Netherlands,Curaçao,,Q24961840,high,wikidata-name+dob,,
464,Kevin Antonio Felida,1999-11-11,MID,FC Den Bosch,19,Curaçao,Netherlands,Spijkenisse,51.83333,4.31667,Netherlands,Curaçao,,Q46709013,high,wikidata-name+dob,,born abroad
465,Riechedly Guillermo Bazoer,1996-10-12,DEF,Konyaspor,6,Curaçao,Netherlands,Utrecht,52.09083,5.12222,Netherlands,Curaçao; Netherlands,Netherlands (U-17); Netherlands (U-19); Netherlands (U-21),Q3431767,high,wikidata-name+dob,,born abroad; senior caps for multiple nations
466,Deveron Lenny Fonville,2003-05-16,DEF,NEC Nijmegen,3,Curaçao,Netherlands,Nieuwegein,52.0314,5.0919,Netherlands,Curaçao,,Q116215237,high,wikidata-name+dob,,born abroad
467,Tyrick Jeremy Bodak,2002-05-15,GK,SC Telstar,4,Curaçao,Netherlands,Almere,52.37025,5.21413,Netherlands,Curaçao,Curaçao (U-17); Curaçao (U-20),Q108858343,high,web-verified,NO,"Tyrick Bodak confirmed; born Almere, Netherlands (sheet's city/coords pointed to Curaçao island - corrected). Senior Curaçao (4 caps), youth U-17/U-20."
468,Trevor Irving Doornbusch,1999-07-06,GK,VVV Venlo,8,Curaçao,Netherlands,Haarlem,52.38028,4.64056,Netherlands,Curaçao,Netherlands (U-18); Netherlands (U-19),Q95223261,high,wikidata-name+dob,,born abroad
469,Yahia Fofana,2000-08-21,GK,Çaykur Rizespor,37,Côte d'Ivoire,France,Paris,48.85667,2.35222,France; Côte d'Ivoire,,,Q105161343,high,wikidata-name+dob,,born abroad
470,Ousmane Diomande,2003-12-04,DEF,Sporting CP,16,Côte d'Ivoire,Côte d'Ivoire,Abidjan,5.33639,-4.02667,Côte d'Ivoire,Côte d'Ivoire,,Q116753805,high,wikidata-name+dob,,
471,N'clomande Ghislain Konan,1995-12-27,DEF,Gil Vicente FC,55,Côte d'Ivoire,Côte d'Ivoire,Abidjan,5.33639,-4.02667,Côte d'Ivoire,,,Q29158696,high,wikidata-name+dob,,
472,Jean Michael Seri,1991-07-19,MID,NK Maribor,65,Côte d'Ivoire,Côte d'Ivoire,Grand-Béréby,4.65,-6.93333,Côte d'Ivoire,Côte d'Ivoire,,Q6171506,high,wikidata-name+dob,,
473,Wilfried Stephane Singo,2000-12-25,DEF,Galatasaray SK,36,Côte d'Ivoire,Côte d'Ivoire,Ouragahio,6.3084,-5.9312,Côte d'Ivoire,Côte d'Ivoire,Côte d'Ivoire (U-20); Côte d'Ivoire (Olympic),Q78255759,medium,web-verified,NO,"QID corrected to Q78255759 (was Q66382867). Born Ouragahio, Côte d'Ivoire; senior CIV."
474,Seko Mohamed Fofana,1995-05-07,MID,FC Porto,33,Côte d'Ivoire,France,Paris,48.85667,2.35222,France; Côte d'Ivoire,,France (U-16); France (U-17); France (U-18); France (U-19),Q18635274,high,wikidata-name+dob,,born abroad
475,Odilon Dorgeless Kossounou,2001-01-04,DEF,Atalanta Bergamo,37,Côte d'Ivoire,Côte d'Ivoire,Abidjan,5.33639,-4.02667,Côte d'Ivoire,Côte d'Ivoire,,Q64009388,high,wikidata-name+dob,,
476,Franck Yannick Kessie,1996-12-19,MID,Al Ahli FC,105,Côte d'Ivoire,Côte d'Ivoire,Ouragahio,6.41667,-5.91667,Côte d'Ivoire,Côte d'Ivoire,Côte d'Ivoire (U-17),Q18044401,high,wikidata-name+dob,,
477,Ange-Yoan Laurent Bonny,2003-10-25,FWD,FC Internazionale Milano,2,Côte d'Ivoire,France,Aubervilliers,48.91111,2.3825,France; Côte d'Ivoire,,,Q101067809,high,wikidata-name+dob,,born abroad
478,Simon Adingra,2002-01-01,FWD,AS Monaco,29,Côte d'Ivoire,Côte d'Ivoire,Yamoussoukro,6.81611,-5.27417,Côte d'Ivoire,Côte d'Ivoire,,Q107742783,high,wikidata-name+dob,,
479,Yan Diomande,2006-11-14,FWD,RB Leipzig,11,Côte d'Ivoire,Côte d'Ivoire,Abidjan,5.33639,-4.02667,Côte d'Ivoire,Côte d'Ivoire,,Q133698867,high,wikidata-name+dob,,
480,Elye Delmas Wahi,2003-01-02,FWD,OGC Nice,3,Côte d'Ivoire,France,Courcouronnes,48.61806,2.40694,France; Côte d'Ivoire,,,Q104215027,high,wikidata-name+dob,,born abroad
481,Christopher Tea Domoraud Operi,1997-04-29,DEF,Ba ş ak ş ehir FK,12,Côte d'Ivoire,Côte d'Ivoire,Abidjan,5.33639,-4.02667,Côte d'Ivoire; France,,,Q41791648,high,wikidata-name+dob,,
482,Oumar Diakite,2003-12-20,FWD,Cercle Brugge,29,Côte d'Ivoire,Côte d'Ivoire,Bingerville,5.35,-3.9,Côte d'Ivoire,,,Q110531201,high,wikidata-name+dob,,
483,Amad Diallo,2002-07-11,FWD,Manchester United FC,20,Côte d'Ivoire,Côte d'Ivoire,Abidjan,5.33639,-4.02667,Côte d'Ivoire,,,Q72603655,high,wikidata-name+dob,,
484,Mohamed Kone,2002-03-07,GK,Sporting Charleroi,0,Côte d'Ivoire,Côte d'Ivoire,Adjamé,5.35,-4.03333,Côte d'Ivoire; France,,,Q126365092,high,wikidata-name+dob,,
485,Guela Maho-Lewis Doue,2002-10-17,DEF,RC Strasbourg,21,Côte d'Ivoire,France,Angers,47.47278,-0.55556,Côte d'Ivoire; France,,,Q116605365,high,wikidata-name+dob,,born abroad
486,Ibrahim Sangare,1997-12-02,MID,Nottingham Forest FC,56,Côte d'Ivoire,Côte d'Ivoire,Koumassi,5.3,-3.95,Côte d'Ivoire,Côte d'Ivoire,,Q27832634,high,wikidata-name+dob,,
487,Nicolas Pepe,1995-05-29,FWD,Villarreal CF,57,Côte d'Ivoire,France,Mantes-la-Jolie,48.99056,1.71667,France,Côte d'Ivoire,,Q20641306,high,wikidata-name+dob,,born abroad
488,Emmanuel Elysee Djedje Agbadou,1997-06-17,DEF,Be ş ikta ş  JK,22,Côte d'Ivoire,Côte d'Ivoire,Ivory Coast,8,-6,Côte d'Ivoire,,,Q69523791,high,wikidata-name+dob,,
489,Obite Evan Ndicka,1999-08-20,DEF,AS Roma,29,Côte d'Ivoire,France,20th arrondissement of Paris,48.86506,2.39905,France; Côte d'Ivoire; Cameroon,,France (U-20),Q28971436,high,wikidata-name+dob,,born abroad
490,Evann Ludovic Vidjannagni Guessand,2001-07-01,FWD,Crystal Palace FC,21,Côte d'Ivoire,France,Ajaccio,41.92556,8.73639,France; Côte d'Ivoire,Côte d'Ivoire,,Q98593672,high,wikidata-name+dob,,born abroad
491,Alban-Marc Lafont,1999-01-23,GK,Panathinaikos FC,4,Côte d'Ivoire,Burkina Faso,Ouagadougou,12.36861,-1.5275,Burkina Faso; France; Côte d'Ivoire,,France (U-16); France (U-17); France (U-20),Q21590318,high,wikidata-name+dob,,born abroad
492,Bazoumana Toure,2006-03-02,FWD,TSG Hoffenheim,7,Côte d'Ivoire,Côte d'Ivoire,Bouaké,7.68333,-5.03306,Côte d'Ivoire,,,Q125805788,high,wikidata-name+dob,,
493,Parfait Guiagon,2001-02-22,MID,Sporting Charleroi,5,Côte d'Ivoire,Côte d'Ivoire,Logoualé,7.11667,-7.55,Côte d'Ivoire,,,Q97577478,high,wikidata-name+dob,,
494,Christ Ravynel Inao Oulai,2006-04-06,MID,Trabzonspor,10,Côte d'Ivoire,Côte d'Ivoire,Yopougon,5.33472,-4.07,Côte d'Ivoire,,,Q136038808,high,wikidata-name+dob,,
495,Hernán Ismael Galindez,1987-03-30,GK,CA Huracán,36,Ecuador,Argentina,Rosario,-32.9575,-60.63944,Ecuador,Ecuador,,Q5742434,high,wikidata-name+dob,,born abroad
496,Félix Eduardo Torres,1997-01-11,DEF,SC Internacional,49,Ecuador,Ecuador,San Lorenzo,1.28639,-78.83528,Ecuador,Ecuador,Ecuador (U-20),Q30916190,high,wikidata-name+dob,,
497,Piero Martin Hincapie,2002-01-09,DEF,Arsenal FC,53,Ecuador,Ecuador,Esmeraldas,0.95,-79.66667,Ecuador,Ecuador,Ecuador (U-17),Q101053044,high,wikidata-name+dob,,
498,Joel Leandro Ordonez,2004-04-21,DEF,Club Brugge,18,Ecuador,Ecuador,Guayaquil,-2.19,-79.8875,Ecuador,,,Q113390994,high,wikidata-name+dob,,
499,Jordy Jose Alcivar,1999-08-05,MID,Independiente Del Valle,11,Ecuador,Ecuador,Manta,-0.95002,-80.7162,Ecuador,,,Q60842122,high,wikidata-name+dob,,
500,Willian Joel Pacho,2001-10-16,DEF,Paris Saint-Germain,35,Ecuador,Ecuador,Rosa Zárate,0.32722,-79.46889,Ecuador,Ecuador,,Q87767569,high,wikidata-name+dob,,
501,Pervis Josue Estupinan,1998-01-21,DEF,AC Milan,54,Ecuador,Ecuador,Esmeraldas,0.95,-79.66667,Ecuador,Ecuador,Ecuador (U-17); Ecuador (U-20),Q20994068,high,wikidata-name+dob,,
502,Anthony Lenin Valencia,2003-07-21,MID,Royal Antwerp FC,3,Ecuador,Ecuador,Guayaquil,-2.19,-79.8875,Ecuador,,,Q101247266,high,wikidata-name+dob,,
503,John Yeboah,2000-06-23,FWD,Venezia FC,23,Ecuador,Germany,Hamburg,53.55,10,Germany; Ecuador,Ecuador,Germany (U-16); Germany (U-17); Germany (U-18); Germany (U-19),Q58215731,high,wikidata-name+dob,,born abroad
504,Ray Kendry Paez,2007-05-04,MID,CA River Plate,26,Ecuador,Ecuador,Guayaquil,-2.19,-79.8875,Ecuador,,,Q116466426,high,wikidata-name+dob,,
505,Kevin Jose Rodriguez,2000-03-04,FWD,Royale Union Saint-Gilloise,32,Ecuador,Ecuador,Ibarra,0.36278,-78.13,Ecuador,Ecuador,,Q115132592,high,wikidata-name+dob,,
506,Wellington Moisés Ramirez,2000-09-09,GK,AE Kifisia FC,7,Ecuador,Ecuador,Guayaquil,-2.19,-79.8875,Ecuador,Ecuador,,Q60842106,high,wikidata-name+dob,,
507,Enner Remberto Valencia,1989-11-04,FWD,CF Pachuca,106,Ecuador,Ecuador,San Lorenzo,1.28639,-78.83528,Ecuador,Ecuador,,Q2843080,high,wikidata-name+dob,,
508,Alan Steve Minda,2003-05-14,MID,Atlético Mineiro,21,Ecuador,Ecuador,Esmeraldas,0.95,-79.66667,Ecuador,,,Q116054089,high,wikidata-name+dob,,
509,Pedro Jeampierre Vite,2002-03-09,MID,Pumas UNAM,18,Ecuador,Ecuador,Babahoyo,-1.81667,-79.51667,Ecuador,,,Q105920173,high,wikidata-name+dob,,
510,Jordy Josue Caicedo,1997-11-18,FWD,CA Huracán,20,Ecuador,Ecuador,Machala,-3.26667,-79.96667,Ecuador,Ecuador,,Q30346214,high,wikidata-name+dob,,
511,Ángelo Smit Preciado,1998-02-18,DEF,Atlético Mineiro,57,Ecuador,Ecuador,Shushufindi Canton,-0.1871,-76.645,Ecuador,Ecuador,,Q56599873,high,wikidata-name+dob,,
512,Denil Daniel Castillo,2004-03-24,MID,FC Midtjylland,5,Ecuador,Ecuador,Eloy Alfaro Canton,1.24994,-78.98421,Ecuador,,,Q117835987,high,wikidata-name+dob,,
513,Gonzalo Jordy Plata,2000-11-01,FWD,CR Flamengo,51,Ecuador,Ecuador,Guayaquil,-2.19,-79.8875,Ecuador,,,Q60842120,high,wikidata-name+dob,,
514,Nilson David Angulo,2003-06-19,FWD,Sunderland AFC,15,Ecuador,Ecuador,Quito,-0.22,-78.5125,Ecuador,,,Q109301509,high,wikidata-name+dob,,
515,Alan Steven Franco,1998-08-21,MID,Atlético Mineiro,59,Ecuador,Ecuador,Alfredo Baquerizo Moreno,-1.89167,-79.5575,Ecuador,Ecuador,,Q56164119,high,wikidata-name+dob,,
516,Gonzalo Roberto Valle,1996-02-28,GK,LDU Quito,4,Ecuador,Ecuador,Riobamba,-1.67306,-78.64833,Ecuador,,,Q87119732,high,wikidata-name+dob,,
517,Moisés Isaac Caicedo,2001-11-02,MID,Chelsea FC,62,Ecuador,Ecuador,Santo Domingo,-0.25417,-79.17194,Ecuador,Ecuador,,Q87715532,high,wikidata-name+dob,,
518,Jeremy Alberto Arevalo,2005-03-19,FWD,VfB Stuttgart,4,Ecuador,Spain,Santander,43.46667,-3.8,Spain; Ecuador,,,Q121410218,high,wikidata-name+dob,,born abroad
519,Jackson Gabriel Porozo,2000-08-04,DEF,Club Tijuana,10,Ecuador,Ecuador,San Lorenzo,1.28639,-78.83528,Ecuador,Ecuador,,Q60842110,high,wikidata-name+dob,,
520,Yaimar Abel Medina,2004-11-05,DEF,KRC Genk,6,Ecuador,Ecuador,Eloy Alfaro Canton,1.24994,-78.98421,Ecuador,,,Q116235098,high,wikidata-name+dob,,
521,Bart Verbruggen,2002-08-18,GK,Brighton & Hove Albion FC,30,Netherlands,Netherlands,Zwolle,52.51667,6.1,Netherlands,Netherlands,Netherlands (U-18); Netherlands (U-23),Q98682558,high,wikidata-name+dob,,
522,Lutsharel Emiliano Geertruida,2000-07-18,DEF,Sunderland AFC,21,Netherlands,Netherlands,Rotterdam,51.92,4.48,Netherlands,Netherlands,Netherlands (U-16); Netherlands (U-17); Netherlands (U-18); Netherlands (U-19); Netherlands (U-21),Q42328360,high,wikidata-name+dob,,
523,Marten Elco De Roon,1991-03-29,MID,Atalanta Bergamo,43,Netherlands,Netherlands,Zwijndrecht,51.82399,4.61258,Netherlands,,Netherlands (U-19),Q285684,high,wikidata-name+dob,,
524,Virgil Van Dijk,1991-07-08,DEF,Liverpool FC,93,Netherlands,Netherlands,Breda,51.58889,4.77583,Netherlands,Netherlands,Netherlands (U-19); Netherlands (U-21),Q133903,high,wikidata-name+dob,,
525,Nathan Benjamin Ake,1995-02-18,DEF,Manchester City FC,60,Netherlands,Netherlands,The Hague,52.08,4.31,Netherlands,Netherlands,Netherlands (U-17); Netherlands (U-19); Netherlands (U-21),Q1755683,high,wikidata-name+dob,,
526,Paul Jan-Paul Van Hecke,2000-06-08,DEF,Brighton & Hove Albion FC,13,Netherlands,Netherlands,Arnemuiden,51.5,3.66667,Netherlands,,,Q66828825,high,wikipedia-squad,,
527,Justin Dean Kluivert,1999-05-05,MID,AFC Bournemouth,12,Netherlands,Netherlands,Zaandam,52.44167,4.84222,Netherlands,,Netherlands (U-21),Q26934107,high,wikidata-name+dob,,
528,Ryan Jiro Gravenberch,2002-05-16,MID,Liverpool FC,28,Netherlands,Netherlands,Amsterdam,52.36667,4.88333,Netherlands,Netherlands,Netherlands (U-17); Netherlands (U-19); Netherlands (U-21),Q56257870,high,wikidata-name+dob,,born abroad
529,Wout François Maria Weghorst,1992-08-07,FWD,AFC Ajax,52,Netherlands,Netherlands,Amsterdam,52.36667,4.88333,Netherlands,Netherlands,Netherlands (U-21),Q2210473,high,wikidata-name+dob,,born abroad
530,Memphis Depay,1994-02-13,FWD,SC Corinthians,110,Netherlands,Netherlands,Moordrecht,51.9861,4.6681,Netherlands; Ghana,Netherlands,Netherlands (U-17); Netherlands (U-19); Netherlands (U-21),Q1894,high,wikidata-name+dob,,
531,Cody Mathès Gakpo,1999-05-07,FWD,Liverpool FC,51,Netherlands,Netherlands,Eindhoven,51.43444,5.48417,Netherlands,Netherlands,Netherlands (U-21),Q28801927,high,wikidata-name+dob,,
532,Mats Henrik Berne Wieffer,1999-11-16,DEF,Brighton & Hove Albion FC,15,Netherlands,Netherlands,Borne,52.3,6.75,Netherlands,Netherlands,,Q58767078,high,wikidata-name+dob,,
533,Robin Gerardus Petrus Roefs,2003-01-17,GK,Sunderland AFC,1,Netherlands,Netherlands,Heeswijk-Dinther,51.6503,5.475,Netherlands,,,Q122789696,high,wikidata-name+dob,,
534,Tijjani Martinus Jan Reijnders,1998-07-29,MID,Manchester City FC,33,Netherlands,Netherlands,Zwolle,52.51667,6.1,Netherlands,Netherlands,Netherlands (U-20),Q39500352,high,wikidata-name+dob,,
535,Micky Van De Ven,2001-04-19,DEF,Tottenham Hotspur FC,22,Netherlands,Netherlands,Wormer,52.4972,4.8089,Netherlands,Netherlands,Netherlands (U-21),Q69812902,high,wikidata-name+dob,,
536,Guus Berend Til,1997-12-22,MID,PSV Eindhoven,7,Netherlands,Zambia,Samfya,-11.36194,29.55972,Netherlands,Netherlands,Netherlands (U-20); Netherlands (U-21),Q26385193,high,wikidata-name+dob,,born abroad
537,Noa Noëll Lang,1999-06-17,FWD,Galatasaray SK,15,Netherlands,Netherlands,Capelle aan den IJssel,51.93567,4.57819,Netherlands,,,Q29441778,high,wikidata-name+dob,,
538,Donyell Malen,1999-01-19,FWD,AS Roma,54,Netherlands,Netherlands,Wieringen,52.9,4.97,Netherlands,Netherlands,Netherlands (U-21),Q24084301,high,wikidata-name+dob,,
539,Brian Ebenezer Adjei Brobbey,2002-02-01,FWD,Sunderland AFC,13,Netherlands,Netherlands,Amsterdam,52.36667,4.88333,Netherlands,,,Q57456997,high,wikidata-name+dob,,born abroad
540,Teun Koopmeiners,1998-02-28,MID,Juventus FC,29,Netherlands,Netherlands,Castricum,52.5517,4.6583,Netherlands,Netherlands,Netherlands (U-17); Netherlands (U-18); Netherlands (U-19); Netherlands (U-20); Netherlands (U-21),Q39498277,high,wikidata-name+dob,,
541,Frenkie De Jong,1997-05-12,MID,FC Barcelona,67,Netherlands,Netherlands,Arkel,51.8639,4.9944,Netherlands,Netherlands,Netherlands (U-19); Netherlands (U-21),Q19898898,high,wikidata-name+dob,,
542,Denzel Justus Morris Dumfries,1996-04-18,DEF,FC Internazionale Milano,73,Netherlands,Netherlands,Rotterdam,51.92,4.48,Netherlands,Aruba; Netherlands,Netherlands (U-21),Q19882816,high,wikidata-name+dob,,senior caps for multiple nations
543,Mark Maria Hubertus Flekken,1993-06-13,GK,Bayer 04 Leverkusen,12,Netherlands,Netherlands,Kerkrade,50.86667,6.06667,Netherlands,Netherlands,,Q5811691,high,wikidata-name+dob,,
544,Crysencio Jilbert Sylverio Cir Summerville,2001-10-30,FWD,West Ham United FC,3,Netherlands,Netherlands,Rotterdam,51.92,4.48,Netherlands,,,Q60664537,high,wikidata-name+dob,,
